[
  {
    "id": "SLC",
    "nombre": "San Luis",
    "tipo": "Ciudad Capital",
    "departamento": "Juan Martín de Pueyrredón",
    "provincia": "San Luis",
    "pais": "Argentina",
    "elevacion": 709,
    "lat": -33.3022222,
    "lon": -66.3355556
  },
  {
    "id": "VMS",
    "nombre": "Villa Mercedes",
    "tipo": "Ciudad",
    "departamento": "General Pedernera",
    "provincia": "San Luis",
    "pais": "Argentina",
    "elevacion": 515,
    "lat": -33.6666667,
    "lon": -65.4666667
  },
  {
    "id": "MESL",
    "nombre": "Merlo",
    "tipo": "Ciudad",
    "departamento": "Junín",
    "provincia": "San Luis",
    "pais": "Argentina",
    "elevacion": 809,
    "lat": -32.34262933266051,
    "lon": -65.01355495819543
  },
  {
    "id": "JCH",
    "nombre": "Juana Koslay",
    "tipo": "Ciudad",
    "departamento": "Juan Martín de Pueyrredón",
    "provincia": "San Luis",
    "pais": "Argentina",
    "elevacion": 711,
    "lat": -33.3166667,
    "lon": -66.2833333
  },
  {
    "id": "PCT",
    "nombre": "Potrero de los Funes",
    "tipo": "Villa Turística",
    "departamento": "Juan Martín de Pueyrredón",
    "provincia": "San Luis",
    "pais": "Argentina",
    "elevacion": 860,
    "lat": -33.2166667,
    "lon": -66.2333333
  },
  {
    "id": "LTM",
    "nombre": "La Toma",
    "tipo": "Ciudad",
    "departamento": "Coronel Pringles",
    "provincia": "San Luis",
    "pais": "Argentina",
    "elevacion": 725,
    "lat": -33.05519912516091,
    "lon": -65.61789790765415
  },
  {
    "id": "CNT",
    "nombre": "Concarán",
    "tipo": "Ciudad",
    "departamento": "Chacabuco",
    "provincia": "San Luis",
    "pais": "Argentina",
    "elevacion": 664,
    "lat": -32.5633333,
    "lon": -65.2433333
  },
  {
    "id": "CNT",
    "nombre": "Casa Lidia Meza",
    "tipo": "Ciudad",
    "departamento": "Concarán",
    "provincia": "San Luis",
    "pais": "Argentina",
    "elevacion": 153,
    "lat": -32.560365263192736,
    "lon": -65.23517700307904
  },
  {
    "id": "NPZ",
    "nombre": "Nueva Paz",
    "tipo": "Localidad",
    "departamento": "General Pedernera",
    "provincia": "San Luis",
    "pais": "Argentina",
    "elevacion": 498,
    "lat": -33.8833333,
    "lon": -65.2833333
  },
  {
    "id": "QPM",
    "nombre": "Quines",
    "tipo": "Ciudad",
    "departamento": "Ayacucho",
    "provincia": "San Luis",
    "pais": "Argentina",
    "elevacion": 506,
    "lat": -32.23284188561628,
    "lon": -65.80509183764627
  },
  {
    "id": "SFM",
    "nombre": "Santa Rosa del Conlara",
    "tipo": "Ciudad",
    "departamento": "Junín",
    "provincia": "San Luis",
    "pais": "Argentina",
    "elevacion": 625,
    "lat": -32.3433333,
    "lon": -65.2116667
  },
  {
    "id": "TMC",
    "nombre": "Tilisarao",
    "tipo": "Ciudad",
    "departamento": "Chacabuco",
    "provincia": "San Luis",
    "pais": "Argentina",
    "elevacion": 686,
    "lat": -32.7333333,
    "lon": -65.2833333
  },
  {
    "id": "UNC",
    "nombre": "Unión",
    "tipo": "Localidad",
    "departamento": "Gobernador Dupuy",
    "provincia": "San Luis",
    "pais": "Argentina",
    "elevacion": 320,
    "lat": -35.1833333,
    "lon": -65.9333333
  },
  {
    "id": "BGL",
    "nombre": "Buena Esperanza",
    "tipo": "Ciudad",
    "departamento": "Gobernador Dupuy",
    "provincia": "San Luis",
    "pais": "Argentina",
    "elevacion": 380,
    "lat": -34.75798354298443,
    "lon": -65.25372994707907
  },
  {
    "id": "NGL",
    "nombre": "Nogolí",
    "tipo": "Localidad",
    "departamento": "General Belgrano",
    "provincia": "San Luis",
    "pais": "Argentina",
    "elevacion": 857,
    "lat": -32.9166667,
    "lon": -66.3166667
  },
  {
    "id": "CPT",
    "nombre": "Carpintería",
    "tipo": "Villa Turística",
    "departamento": "Junín",
    "provincia": "San Luis",
    "pais": "Argentina",
    "elevacion": 1050,
    "lat": -32.41014754729099,
    "lon": -65.01000907777427
  },
  {
    "id": "LFL",
    "nombre": "La Florida",
    "tipo": "Villa Turística",
    "departamento": "Coronel Pringles",
    "provincia": "San Luis",
    "pais": "Argentina",
    "elevacion": 857,
    "lat": -33.1166667,
    "lon": -66.0333333
  },
  {
    "id": "ETP",
    "nombre": "El Trapiche",
    "tipo": "Villa Turística",
    "departamento": "Coronel Pringles",
    "provincia": "San Luis",
    "pais": "Argentina",
    "elevacion": 910,
    "lat": -33.1166667,
    "lon": -66.0666667
  },
  {
    "id": "ELMO",
    "nombre": "El Morro",
    "tipo": "Pueblo",
    "departamento": "General Pedernera",
    "provincia": "San Luis",
    "pais": "Argentina",
    "elevacion": 303,
    "lat": -33.21241168818113,
    "lon": -65.49113763307443
  },
  {
    "id": "CEMO",
    "nombre": "Cerro El Morro",
    "tipo": "Mirador",
    "departamento": "General Pedernera",
    "provincia": "San Luis",
    "pais": "Argentina",
    "elevacion": 4800,
    "lat": -33.15233461781494,
    "lon": -65.3972379701866
  },
  {
    "id": "SCY",
    "nombre": "San Francisco del Monte de Oro",
    "tipo": "Ciudad",
    "departamento": "Ayacucho",
    "provincia": "San Luis",
    "pais": "Argentina",
    "elevacion": 910,
    "lat": -32.6,
    "lon": -66.1333333
  },
  {
    "id": "LJR",
    "nombre": "Beazley",
    "tipo": "Localidad",
    "departamento": "Juan Martín de Pueyrredon",
    "provincia": "San Luis",
    "pais": "Argentina",
    "elevacion": 495,
    "lat": -33.757608954422864,
    "lon": -66.64481404808576
  },
  {
    "id": "PNSLQ",
    "nombre": "Sierra de las Quijadas",
    "tipo": "Parque Nacional",
    "departamento": "Belgrano",
    "provincia": "San Luis",
    "pais": "Argentina",
    "elevacion": 495,
    "lat": -32.542487461930875,
    "lon": -67.02412385908121
  },
  {
    "id": "LPT",
    "nombre": "La Punta",
    "tipo": "Ciudad",
    "departamento": "Juan Martín de Pueyrredón",
    "provincia": "San Luis",
    "pais": "Argentina",
    "elevacion": 861,
    "lat": -33.1833333,
    "lon": -66.3166667
  },
  {
    "id": "ESTG",
    "nombre": "Estancia Grande",
    "tipo": "Villa Turística",
    "departamento": "Juan Martín de Pueyrredón",
    "provincia": "San Luis",
    "pais": "Argentina",
    "elevacion": 861,
    "lat": -33.19459460617043,
    "lon": -66.15989824777664
  },
  {
    "id": "ELMO",
    "nombre": "El Molle",
    "tipo": "Localidad",
    "departamento": "Belgrano",
    "provincia": "San Luis",
    "pais": "Argentina",
    "elevacion": 495,
    "lat": -33.096250422195375,
    "lon": -66.29224238695417
  },
  {
    "id": "CNL",
    "nombre": "Candelaria",
    "tipo": "Localidad",
    "departamento": "Ayacucho",
    "provincia": "San Luis",
    "pais": "Argentina",
    "elevacion": 845,
    "lat": -32.0666667,
    "lon": -65.8333333
  },
  {
    "id": "NCL",
    "nombre": "Naschel",
    "tipo": "Ciudad",
    "departamento": "Chacabuco",
    "provincia": "San Luis",
    "pais": "Argentina",
    "elevacion": 741,
    "lat": -32.9166667,
    "lon": -65.3666667
  },
  {
    "id": "LBT",
    "nombre": "Luján",
    "tipo": "Localidad",
    "departamento": "Ayacucho",
    "provincia": "San Luis",
    "pais": "Argentina",
    "elevacion": 458,
    "lat": -32.3666667,
    "lon": -65.9333333
  },
  {
    "id": "CDC",
    "nombre": "Cortaderas",
    "tipo": "Villa Turística",
    "departamento": "Chacabuco",
    "provincia": "San Luis",
    "pais": "Argentina",
    "elevacion": 1067,
    "lat": -32.50524225956534,
    "lon": -64.99212846621589
  },
  {
    "id": "PPC",
    "nombre": "Papagayos",
    "tipo": "Villa Turística",
    "departamento": "Chacabuco",
    "provincia": "San Luis",
    "pais": "Argentina",
    "elevacion": 920,
    "lat": -32.6833333,
    "lon": -64.9833333
  },
  {
    "id": "ARN",
    "nombre": "Arizona",
    "tipo": "Localidad",
    "departamento": "General Pedernera",
    "provincia": "San Luis",
    "pais": "Argentina",
    "elevacion": 480,
    "lat": -33.7333333,
    "lon": -65.3166667
  },
  {
    "id": "VLC",
    "nombre": "Villa de la Cruz",
    "tipo": "Localidad",
    "departamento": "General Pedernera",
    "provincia": "San Luis",
    "pais": "Argentina",
    "elevacion": 505,
    "lat": -33.6333333,
    "lon": -65.55
  },
  {
    "id": "LSQCH",
    "nombre": "Los Quebrachos",
    "tipo": "Paraje",
    "departamento": "Chacabuco",
    "provincia": "San Luis",
    "pais": "Argentina",
    "elevacion": 505,
    "lat": -32.53371087067425,
    "lon": -65.33236762505321
  },
  {
    "id": "FRT",
    "nombre": "Fortuna",
    "tipo": "Localidad",
    "departamento": "Gobernador Dupuy",
    "provincia": "San Luis",
    "pais": "Argentina",
    "elevacion": 320,
    "lat": -35.1333333,
    "lon": -65.2
  },
  {
    "id": "ANC",
    "nombre": "Anchorena",
    "tipo": "Localidad",
    "departamento": "Gobernador Dupuy",
    "provincia": "San Luis",
    "pais": "Argentina",
    "elevacion": 350,
    "lat": -35.0333333,
    "lon": -65.5
  },
  {
    "id": "BTS",
    "nombre": "Batavia",
    "tipo": "Localidad",
    "departamento": "Gobernador Dupuy",
    "provincia": "San Luis",
    "pais": "Argentina",
    "elevacion": 310,
    "lat": -34.7833333,
    "lon": -65.2666667
  },
  {
    "id": "VEL",
    "nombre": "Villa Elena",
    "tipo": "Localidad",
    "departamento": "Gobernador Dupuy",
    "provincia": "San Luis",
    "pais": "Argentina",
    "elevacion": 375,
    "lat": -34.8333333,
    "lon": -65.3833333
  },
  {
    "id": "VLA",
    "nombre": "Villa Larca",
    "tipo": "Villa Turística",
    "departamento": "Chacabuco",
    "provincia": "San Luis",
    "pais": "Argentina",
    "elevacion": 1043,
    "lat": -32.6333333,
    "lon": -65.0166667
  },
  {
    "id": "PCDA",
    "nombre": "Puerta Colorada",
    "tipo": "Paraje",
    "departamento": "Chacabuco",
    "provincia": "San Luis",
    "pais": "Argentina",
    "elevacion": 1043,
    "lat": -32.53465375023775,
    "lon": -65.39781592550588
  },
  {
    "id": "DQUPY",
    "nombre": "Dique Piscu Yaco",
    "tipo": "Dique",
    "departamento": "Chacabuco",
    "provincia": "San Luis",
    "pais": "Argentina",
    "elevacion": 1043,
    "lat": -32.55165804413039,
    "lon": -64.95882775926705
  },
  {
    "id": "MLCO",
    "nombre": "Mina Los Cóndores",
    "tipo": "Pueblo abandonado",
    "departamento": "Chacabuco",
    "provincia": "San Luis",
    "pais": "Argentina",
    "elevacion": 700,
    "lat": -32.574783578613356,
    "lon": -65.3177824267345
  },
  {
    "id": "MDZ",
    "nombre": "Ciudad de Mendoza",
    "tipo": "Ciudad Capital",
    "departamento": "Capital",
    "provincia": "Mendoza",
    "pais": "Argentina",
    "elevacion": 746,
    "lat": -32.8908,
    "lon": -68.8272
  },
  {
    "id": "GDL",
    "nombre": "Godoy Cruz",
    "tipo": "Ciudad",
    "departamento": "Godoy Cruz",
    "provincia": "Mendoza",
    "pais": "Argentina",
    "elevacion": 827,
    "lat": -32.9254,
    "lon": -68.8472
  },
  {
    "id": "GYM",
    "nombre": "Guaymallén",
    "tipo": "Ciudad",
    "departamento": "Guaymallén",
    "provincia": "Mendoza",
    "pais": "Argentina",
    "elevacion": 724,
    "lat": -32.8833,
    "lon": -68.7833
  },
  {
    "id": "LSH",
    "nombre": "Las Heras",
    "tipo": "Ciudad",
    "departamento": "Las Heras",
    "provincia": "Mendoza",
    "pais": "Argentina",
    "elevacion": 769,
    "lat": -32.85,
    "lon": -68.8167
  },
  {
    "id": "MAI",
    "nombre": "Maipú",
    "tipo": "Ciudad",
    "departamento": "Maipú",
    "provincia": "Mendoza",
    "pais": "Argentina",
    "elevacion": 747,
    "lat": -32.9833,
    "lon": -68.7833
  },
  {
    "id": "LUJ",
    "nombre": "Luján de Cuyo",
    "tipo": "Ciudad",
    "departamento": "Luján de Cuyo",
    "provincia": "Mendoza",
    "pais": "Argentina",
    "elevacion": 945,
    "lat": -33.0333,
    "lon": -68.8833
  },
  {
    "id": "SRF",
    "nombre": "San Rafael",
    "tipo": "Ciudad",
    "departamento": "San Rafael",
    "provincia": "Mendoza",
    "pais": "Argentina",
    "elevacion": 748,
    "lat": -34.6177,
    "lon": -68.3301
  },
  {
    "id": "UTNSRF",
    "nombre": "UTN San Rafael",
    "tipo": "Ciudad",
    "departamento": "San Rafael",
    "provincia": "Mendoza",
    "pais": "Argentina",
    "elevacion": 152,
    "lat": -34.60149730377255,
    "lon": -68.32785465154824
  },
  {
    "id": "TERSRF",
    "nombre": "Casa Alejandro Meza",
    "tipo": "Ciudad",
    "departamento": "San Rafael",
    "provincia": "Mendoza",
    "pais": "Argentina",
    "elevacion": 149,
    "lat": -34.62128069359487,
    "lon": -68.32238430312655
  },
  {
    "id": "TERSRF",
    "nombre": "Casa Juan Carlos Meza",
    "tipo": "Ciudad",
    "departamento": "San Rafael",
    "provincia": "Mendoza",
    "pais": "Argentina",
    "elevacion": 149,
    "lat": -34.62756832028832,
    "lon": -68.33244680741683
  },
  {
    "id": "TERSRF",
    "nombre": "Terminal de Ómnibus San Rafael",
    "tipo": "Ciudad",
    "departamento": "San Rafael",
    "provincia": "Mendoza",
    "pais": "Argentina",
    "elevacion": 140,
    "lat": -34.60599690748631,
    "lon": -68.32736206335213
  },
  {
    "id": "SCR",
    "nombre": "San Carlos",
    "tipo": "Ciudad",
    "departamento": "San Carlos",
    "provincia": "Mendoza",
    "pais": "Argentina",
    "elevacion": 940,
    "lat": -33.7667,
    "lon": -69.0333
  },
  {
    "id": "TUN",
    "nombre": "Tunuyán",
    "tipo": "Ciudad",
    "departamento": "Tunuyán",
    "provincia": "Mendoza",
    "pais": "Argentina",
    "elevacion": 874,
    "lat": -33.5833,
    "lon": -69.0167
  },
  {
    "id": "TPG",
    "nombre": "Tupungato",
    "tipo": "Ciudad",
    "departamento": "Tupungato",
    "provincia": "Mendoza",
    "pais": "Argentina",
    "elevacion": 1050,
    "lat": -33.3667,
    "lon": -69.1333
  },
  {
    "id": "MAL",
    "nombre": "Malargüe",
    "tipo": "Ciudad",
    "departamento": "Malargüe",
    "provincia": "Mendoza",
    "pais": "Argentina",
    "elevacion": 1396,
    "lat": -35.4667,
    "lon": -69.5833
  },
  {
    "id": "USP",
    "nombre": "Uspallata",
    "tipo": "Villa",
    "departamento": "Las Heras",
    "provincia": "Mendoza",
    "pais": "Argentina",
    "elevacion": 1891,
    "lat": -32.5833,
    "lon": -69.35
  },
  {
    "id": "POT",
    "nombre": "Potrerillos",
    "tipo": "Villa Turística",
    "departamento": "Luján de Cuyo",
    "provincia": "Mendoza",
    "pais": "Argentina",
    "elevacion": 1380,
    "lat": -32.95,
    "lon": -69.2
  },
  {
    "id": "CHM",
    "nombre": "Chacras de Coria",
    "tipo": "Distrito",
    "departamento": "Luján de Cuyo",
    "provincia": "Mendoza",
    "pais": "Argentina",
    "elevacion": 921,
    "lat": -32.9833,
    "lon": -68.8667
  },
  {
    "id": "CAR",
    "nombre": "Carrodilla",
    "tipo": "Distrito",
    "departamento": "Luján de Cuyo",
    "provincia": "Mendoza",
    "pais": "Argentina",
    "elevacion": 912,
    "lat": -32.9667,
    "lon": -68.85
  },
  {
    "id": "VNU",
    "nombre": "Villa Nueva",
    "tipo": "Distrito",
    "departamento": "Guaymallén",
    "provincia": "Mendoza",
    "pais": "Argentina",
    "elevacion": 724,
    "lat": -32.9,
    "lon": -68.7667
  },
  {
    "id": "DOR",
    "nombre": "Dorrego",
    "tipo": "Distrito",
    "departamento": "Guaymallén",
    "provincia": "Mendoza",
    "pais": "Argentina",
    "elevacion": 725,
    "lat": -32.8833,
    "lon": -68.8
  },
  {
    "id": "LAV",
    "nombre": "Lavalle",
    "tipo": "Ciudad",
    "departamento": "Lavalle",
    "provincia": "Mendoza",
    "pais": "Argentina",
    "elevacion": 618,
    "lat": -32.7167,
    "lon": -68.5833
  },
  {
    "id": "RCO",
    "nombre": "Rivadavia",
    "tipo": "Ciudad",
    "departamento": "Rivadavia",
    "provincia": "Mendoza",
    "pais": "Argentina",
    "elevacion": 653,
    "lat": -33.1833,
    "lon": -68.4667
  },
  {
    "id": "JUN",
    "nombre": "Junín",
    "tipo": "Ciudad",
    "departamento": "Junín",
    "provincia": "Mendoza",
    "pais": "Argentina",
    "elevacion": 653,
    "lat": -33.15,
    "lon": -68.4833
  },
  {
    "id": "PAZ",
    "nombre": "La Paz",
    "tipo": "Ciudad",
    "departamento": "La Paz",
    "provincia": "Mendoza",
    "pais": "Argentina",
    "elevacion": 498,
    "lat": -33.4667,
    "lon": -67.55
  },
  {
    "id": "SCM",
    "nombre": "Santa Rosa",
    "tipo": "Ciudad",
    "departamento": "Santa Rosa",
    "provincia": "Mendoza",
    "pais": "Argentina",
    "elevacion": 598,
    "lat": -33.7167,
    "lon": -68.1667
  },
  {
    "id": "ACO",
    "nombre": "Agrelo",
    "tipo": "Distrito Vinícola",
    "departamento": "Luján de Cuyo",
    "provincia": "Mendoza",
    "pais": "Argentina",
    "elevacion": 980,
    "lat": -33.1167,
    "lon": -68.8833
  },
  {
    "id": "PER",
    "nombre": "Perdriel",
    "tipo": "Distrito Vinícola",
    "departamento": "Luján de Cuyo",
    "provincia": "Mendoza",
    "pais": "Argentina",
    "elevacion": 940,
    "lat": -33.0833,
    "lon": -68.9
  },
  {
    "id": "UGA",
    "nombre": "Ugarteche",
    "tipo": "Distrito",
    "departamento": "Luján de Cuyo",
    "provincia": "Mendoza",
    "pais": "Argentina",
    "elevacion": 912,
    "lat": -33.25,
    "lon": -68.9
  },
  {
    "id": "VIS",
    "nombre": "Vista Flores",
    "tipo": "Distrito",
    "departamento": "Tunuyán",
    "provincia": "Mendoza",
    "pais": "Argentina",
    "elevacion": 949,
    "lat": -33.6333,
    "lon": -69.05
  },
  {
    "id": "LAC",
    "nombre": "La Consulta",
    "tipo": "Distrito",
    "departamento": "San Carlos",
    "provincia": "Mendoza",
    "pais": "Argentina",
    "elevacion": 940,
    "lat": -33.7333,
    "lon": -69.1167
  },
  {
    "id": "PMA",
    "nombre": "Punta de Vacas",
    "tipo": "Localidad",
    "departamento": "Las Heras",
    "provincia": "Mendoza",
    "pais": "Argentina",
    "elevacion": 2350,
    "lat": -32.85,
    "lon": -69.7667
  },
  {
    "id": "LVA",
    "nombre": "Las Vegas",
    "tipo": "Distrito",
    "departamento": "Malargüe",
    "provincia": "Mendoza",
    "pais": "Argentina",
    "elevacion": 1420,
    "lat": -35.5333,
    "lon": -69.6667
  },
  {
    "id": "BOW",
    "nombre": "Bowen",
    "tipo": "Distrito",
    "departamento": "General Alvear",
    "provincia": "Mendoza",
    "pais": "Argentina",
    "elevacion": 480,
    "lat": -34.9833,
    "lon": -67.5167
  },
  {
    "id": "GAL",
    "nombre": "General Alvear",
    "tipo": "Ciudad",
    "departamento": "General Alvear",
    "provincia": "Mendoza",
    "pais": "Argentina",
    "elevacion": 465,
    "lat": -34.9667,
    "lon": -67.6833
  },
  {
    "id": "CBA",
    "nombre": "Córdoba",
    "tipo": "Ciudad Capital",
    "departamento": "Capital",
    "provincia": "Córdoba",
    "pais": "Argentina",
    "elevacion": 390,
    "lat": -31.41677811667936,
    "lon": -64.18358273849186
  },
  {
    "id": "VCA",
    "nombre": "Villa Carlos Paz",
    "tipo": "Ciudad Turística",
    "departamento": "Punilla",
    "provincia": "Córdoba",
    "pais": "Argentina",
    "elevacion": 643,
    "lat": -31.4241,
    "lon": -64.4978
  },
  {
    "id": "RIO",
    "nombre": "Río Cuarto",
    "tipo": "Ciudad",
    "departamento": "Río Cuarto",
    "provincia": "Córdoba",
    "pais": "Argentina",
    "elevacion": 452,
    "lat": -33.1307,
    "lon": -64.3499
  },
  {
    "id": "VMA",
    "nombre": "Villa María",
    "tipo": "Ciudad",
    "departamento": "General San Martín",
    "provincia": "Córdoba",
    "pais": "Argentina",
    "elevacion": 341,
    "lat": -32.4075,
    "lon": -63.2402
  },
  {
    "id": "SFR",
    "nombre": "San Francisco",
    "tipo": "Ciudad",
    "departamento": "San Justo",
    "provincia": "Córdoba",
    "pais": "Argentina",
    "elevacion": 115,
    "lat": -31.4279,
    "lon": -62.0825
  },
  {
    "id": "ALC",
    "nombre": "Alta Gracia",
    "tipo": "Ciudad",
    "departamento": "Santa María",
    "provincia": "Córdoba",
    "pais": "Argentina",
    "elevacion": 550,
    "lat": -31.6529,
    "lon": -64.4283
  },
  {
    "id": "VDA",
    "nombre": "Villa Dolores",
    "tipo": "Ciudad",
    "departamento": "San Javier",
    "provincia": "Córdoba",
    "pais": "Argentina",
    "elevacion": 521,
    "lat": -31.9452,
    "lon": -65.1891
  },
  {
    "id": "BVI",
    "nombre": "Bell Ville",
    "tipo": "Ciudad",
    "departamento": "Unión",
    "provincia": "Córdoba",
    "pais": "Argentina",
    "elevacion": 127,
    "lat": -32.6262,
    "lon": -62.6887
  },
  {
    "id": "MJU",
    "nombre": "Marcos Juárez",
    "tipo": "Ciudad",
    "departamento": "Marcos Juárez",
    "provincia": "Córdoba",
    "pais": "Argentina",
    "elevacion": 114,
    "lat": -32.6997,
    "lon": -62.106
  },
  {
    "id": "VGE",
    "nombre": "Villa General Belgrano",
    "tipo": "Villa Turística",
    "departamento": "Calamuchita",
    "provincia": "Córdoba",
    "pais": "Argentina",
    "elevacion": 720,
    "lat": -31.9778,
    "lon": -64.5613
  },
  {
    "id": "LCU",
    "nombre": "La Cumbre",
    "tipo": "Villa Turística",
    "departamento": "Punilla",
    "provincia": "Córdoba",
    "pais": "Argentina",
    "elevacion": 1141,
    "lat": -30.9667,
    "lon": -64.5
  },
  {
    "id": "CAP",
    "nombre": "Capilla del Monte",
    "tipo": "Villa Turística",
    "departamento": "Punilla",
    "provincia": "Córdoba",
    "pais": "Argentina",
    "elevacion": 979,
    "lat": -30.8603,
    "lon": -64.5225
  },
  {
    "id": "COS",
    "nombre": "Cosquín",
    "tipo": "Ciudad",
    "departamento": "Punilla",
    "provincia": "Córdoba",
    "pais": "Argentina",
    "elevacion": 720,
    "lat": -31.2447,
    "lon": -64.4647
  },
  {
    "id": "JMA",
    "nombre": "Jesús María",
    "tipo": "Ciudad",
    "departamento": "Colón",
    "provincia": "Córdoba",
    "pais": "Argentina",
    "elevacion": 535,
    "lat": -30.9833,
    "lon": -64.1
  },
  {
    "id": "LAF",
    "nombre": "La Falda",
    "tipo": "Ciudad Turística",
    "departamento": "Punilla",
    "provincia": "Córdoba",
    "pais": "Argentina",
    "elevacion": 1000,
    "lat": -31.0853,
    "lon": -64.4794
  },
  {
    "id": "MIR",
    "nombre": "Miramar",
    "tipo": "Villa Turística",
    "departamento": "San Justo",
    "provincia": "Córdoba",
    "pais": "Argentina",
    "elevacion": 72,
    "lat": -30.9167,
    "lon": -62.6667
  },
  {
    "id": "SRC",
    "nombre": "Santa Rosa de Calamuchita",
    "tipo": "Ciudad",
    "departamento": "Calamuchita",
    "provincia": "Córdoba",
    "pais": "Argentina",
    "elevacion": 566,
    "lat": -32.0667,
    "lon": -64.5333
  },
  {
    "id": "LAC",
    "nombre": "La Carlota",
    "tipo": "Ciudad",
    "departamento": "Juárez Celman",
    "provincia": "Córdoba",
    "pais": "Argentina",
    "elevacion": 237,
    "lat": -33.4167,
    "lon": -63.3
  },
  {
    "id": "VRU",
    "nombre": "Villa Rumipal",
    "tipo": "Villa Turística",
    "departamento": "Calamuchita",
    "provincia": "Córdoba",
    "pais": "Argentina",
    "elevacion": 555,
    "lat": -32.1833,
    "lon": -64.4833
  },
  {
    "id": "RCE",
    "nombre": "Río Ceballos",
    "tipo": "Ciudad",
    "departamento": "Colón",
    "provincia": "Córdoba",
    "pais": "Argentina",
    "elevacion": 739,
    "lat": -31.1667,
    "lon": -64.3333
  },
  {
    "id": "UNQ",
    "nombre": "Unquillo",
    "tipo": "Ciudad",
    "departamento": "Colón",
    "provincia": "Córdoba",
    "pais": "Argentina",
    "elevacion": 615,
    "lat": -31.2333,
    "lon": -64.3167
  },
  {
    "id": "VIL",
    "nombre": "Villa Icho Cruz",
    "tipo": "Villa Turística",
    "departamento": "Punilla",
    "provincia": "Córdoba",
    "pais": "Argentina",
    "elevacion": 725,
    "lat": -31.4667,
    "lon": -64.5833
  },
  {
    "id": "CRI",
    "nombre": "Cruz del Eje",
    "tipo": "Ciudad",
    "departamento": "Cruz del Eje",
    "provincia": "Córdoba",
    "pais": "Argentina",
    "elevacion": 457,
    "lat": -30.7222,
    "lon": -64.8028
  },
  {
    "id": "LAB",
    "nombre": "Laboulaye",
    "tipo": "Ciudad",
    "departamento": "Presidente Roque Sáenz Peña",
    "provincia": "Córdoba",
    "pais": "Argentina",
    "elevacion": 137,
    "lat": -34.1333,
    "lon": -63.3833
  },
  {
    "id": "MCC",
    "nombre": "Morteros",
    "tipo": "Ciudad",
    "departamento": "San Justo",
    "provincia": "Córdoba",
    "pais": "Argentina",
    "elevacion": 93,
    "lat": -30.7105187,
    "lon": -62.0285192
  },
  {
    "id": "ARR",
    "nombre": "Arroyito",
    "tipo": "Ciudad",
    "departamento": "San Justo",
    "provincia": "Córdoba",
    "pais": "Argentina",
    "elevacion": 138,
    "lat": -31.4167,
    "lon": -63.05
  },
  {
    "id": "VCS",
    "nombre": "Villa Cura Brochero",
    "tipo": "Villa Turística",
    "departamento": "San Alberto",
    "provincia": "Córdoba",
    "pais": "Argentina",
    "elevacion": 894,
    "lat": -31.7167,
    "lon": -65.0167
  },
  {
    "id": "MIS",
    "nombre": "Mina Clavero",
    "tipo": "Villa Turística",
    "departamento": "San Alberto",
    "provincia": "Córdoba",
    "pais": "Argentina",
    "elevacion": 891,
    "lat": -31.7222,
    "lon": -65.0056
  },
  {
    "id": "VCN",
    "nombre": "Villa del Totoral",
    "tipo": "Ciudad",
    "departamento": "Totoral",
    "provincia": "Córdoba",
    "pais": "Argentina",
    "elevacion": 576,
    "lat": -30.7167,
    "lon": -63.7167
  },
  {
    "id": "HUE",
    "nombre": "Huerta Grande",
    "tipo": "Villa Turística",
    "departamento": "Punilla",
    "provincia": "Córdoba",
    "pais": "Argentina",
    "elevacion": 971,
    "lat": -31.0833,
    "lon": -64.4833
  },
  {
    "id": "VAL",
    "nombre": "Valle Hermoso",
    "tipo": "Villa Turística",
    "departamento": "Punilla",
    "provincia": "Córdoba",
    "pais": "Argentina",
    "elevacion": 975,
    "lat": -31.1167,
    "lon": -64.4833
  },
  {
    "id": "TAN",
    "nombre": "Tanti",
    "tipo": "Villa Turística",
    "departamento": "Punilla",
    "provincia": "Córdoba",
    "pais": "Argentina",
    "elevacion": 830,
    "lat": -31.3333,
    "lon": -64.6
  },
  {
    "id": "CABA",
    "nombre": "Ciudad Autónoma de Buenos Aires",
    "tipo": "Ciudad Capital Federal",
    "departamento": "Buenos Aires",
    "provincia": "Ciudad Autónoma de Buenos Aires",
    "pais": "Argentina",
    "elevacion": 25,
    "lat": -34.6037,
    "lon": -58.3816
  },
  {
    "id": "LPL",
    "nombre": "La Plata",
    "tipo": "Ciudad Capital Provincial",
    "departamento": "La Plata",
    "provincia": "Buenos Aires",
    "pais": "Argentina",
    "elevacion": 26,
    "lat": -34.9214,
    "lon": -57.9544
  },
  {
    "id": "MDQ",
    "nombre": "Mar del Plata",
    "tipo": "Ciudad Turística",
    "departamento": "General Pueyrredón",
    "provincia": "Buenos Aires",
    "pais": "Argentina",
    "elevacion": 38,
    "lat": -38.0023,
    "lon": -57.5575
  },
  {
    "id": "BHI",
    "nombre": "Bahía Blanca",
    "tipo": "Ciudad",
    "departamento": "Bahía Blanca",
    "provincia": "Buenos Aires",
    "pais": "Argentina",
    "elevacion": 20,
    "lat": -38.7196,
    "lon": -62.2724
  },
  {
    "id": "TDL",
    "nombre": "Tandil",
    "tipo": "Ciudad Turística",
    "departamento": "Tandil",
    "provincia": "Buenos Aires",
    "pais": "Argentina",
    "elevacion": 188,
    "lat": -37.3217,
    "lon": -59.1333
  },
  {
    "id": "MER",
    "nombre": "Merlo",
    "tipo": "Ciudad",
    "departamento": "Merlo",
    "provincia": "Buenos Aires",
    "pais": "Argentina",
    "elevacion": 21,
    "lat": -34.6667,
    "lon": -58.7333
  },
  {
    "id": "QUI",
    "nombre": "Quilmes",
    "tipo": "Ciudad",
    "departamento": "Quilmes",
    "provincia": "Buenos Aires",
    "pais": "Argentina",
    "elevacion": 17,
    "lat": -34.7167,
    "lon": -58.2667
  },
  {
    "id": "LAN",
    "nombre": "Lanús",
    "tipo": "Ciudad",
    "departamento": "Lanús",
    "provincia": "Buenos Aires",
    "pais": "Argentina",
    "elevacion": 20,
    "lat": -34.7,
    "lon": -58.4
  },
  {
    "id": "AVE",
    "nombre": "Avellaneda",
    "tipo": "Ciudad",
    "departamento": "Avellaneda",
    "provincia": "Buenos Aires",
    "pais": "Argentina",
    "elevacion": 18,
    "lat": -34.6667,
    "lon": -58.3667
  },
  {
    "id": "SIS",
    "nombre": "San Isidro",
    "tipo": "Ciudad",
    "departamento": "San Isidro",
    "provincia": "Buenos Aires",
    "pais": "Argentina",
    "elevacion": 15,
    "lat": -34.47,
    "lon": -58.5283
  },
  {
    "id": "VLB",
    "nombre": "Vicente López",
    "tipo": "Ciudad",
    "departamento": "Vicente López",
    "provincia": "Buenos Aires",
    "pais": "Argentina",
    "elevacion": 14,
    "lat": -34.5267,
    "lon": -58.4733
  },
  {
    "id": "MOR",
    "nombre": "Morón",
    "tipo": "Ciudad",
    "departamento": "Morón",
    "provincia": "Buenos Aires",
    "pais": "Argentina",
    "elevacion": 24,
    "lat": -34.65,
    "lon": -58.6167
  },
  {
    "id": "SMT",
    "nombre": "San Martín",
    "tipo": "Ciudad",
    "departamento": "General San Martín",
    "provincia": "Buenos Aires",
    "pais": "Argentina",
    "elevacion": 27,
    "lat": -34.5833,
    "lon": -58.5333
  },
  {
    "id": "TIG",
    "nombre": "Tigre",
    "tipo": "Ciudad",
    "departamento": "Tigre",
    "provincia": "Buenos Aires",
    "pais": "Argentina",
    "elevacion": 4,
    "lat": -34.4267,
    "lon": -58.5792
  },
  {
    "id": "PIL",
    "nombre": "Pilar",
    "tipo": "Ciudad",
    "departamento": "Pilar",
    "provincia": "Buenos Aires",
    "pais": "Argentina",
    "elevacion": 29,
    "lat": -34.4586,
    "lon": -58.9142
  },
  {
    "id": "MDP",
    "nombre": "Miramar",
    "tipo": "Ciudad Turística",
    "departamento": "General Alvarado",
    "provincia": "Buenos Aires",
    "pais": "Argentina",
    "elevacion": 17,
    "lat": -38.2667,
    "lon": -57.85
  },
  {
    "id": "NEC",
    "nombre": "Necochea",
    "tipo": "Ciudad Turística",
    "departamento": "Necochea",
    "provincia": "Buenos Aires",
    "pais": "Argentina",
    "elevacion": 11,
    "lat": -38.5473,
    "lon": -58.7368
  },
  {
    "id": "PERB",
    "nombre": "Pergamino",
    "tipo": "Ciudad",
    "departamento": "Pergamino",
    "provincia": "Buenos Aires",
    "pais": "Argentina",
    "elevacion": 65,
    "lat": -33.89,
    "lon": -60.57
  },
  {
    "id": "JUB",
    "nombre": "Junín",
    "tipo": "Ciudad",
    "departamento": "Junín",
    "provincia": "Buenos Aires",
    "pais": "Argentina",
    "elevacion": 81,
    "lat": -34.585,
    "lon": -60.9589
  },
  {
    "id": "ZAR",
    "nombre": "Zárate",
    "tipo": "Ciudad",
    "departamento": "Zárate",
    "provincia": "Buenos Aires",
    "pais": "Argentina",
    "elevacion": 27,
    "lat": -34.0981,
    "lon": -59.0286
  },
  {
    "id": "LUJ",
    "nombre": "Luján",
    "tipo": "Ciudad",
    "departamento": "Luján",
    "provincia": "Buenos Aires",
    "pais": "Argentina",
    "elevacion": 28,
    "lat": -34.5703,
    "lon": -59.105
  },
  {
    "id": "AZU",
    "nombre": "Azul",
    "tipo": "Ciudad",
    "departamento": "Azul",
    "provincia": "Buenos Aires",
    "pais": "Argentina",
    "elevacion": 132,
    "lat": -36.7767,
    "lon": -59.8589
  },
  {
    "id": "OLA",
    "nombre": "Olavarría",
    "tipo": "Ciudad",
    "departamento": "Olavarría",
    "provincia": "Buenos Aires",
    "pais": "Argentina",
    "elevacion": 166,
    "lat": -36.8927,
    "lon": -60.3225
  },
  {
    "id": "GES",
    "nombre": "Gesell",
    "tipo": "Ciudad Turística",
    "departamento": "Villa Gesell",
    "provincia": "Buenos Aires",
    "pais": "Argentina",
    "elevacion": 11,
    "lat": -37.2633,
    "lon": -56.9737
  },
  {
    "id": "PIN",
    "nombre": "Pinamar",
    "tipo": "Ciudad Turística",
    "departamento": "Pinamar",
    "provincia": "Buenos Aires",
    "pais": "Argentina",
    "elevacion": 13,
    "lat": -37.1167,
    "lon": -56.85
  },
  {
    "id": "CAB",
    "nombre": "Cariló",
    "tipo": "Villa Turística",
    "departamento": "Pinamar",
    "provincia": "Buenos Aires",
    "pais": "Argentina",
    "elevacion": 15,
    "lat": -37.1667,
    "lon": -56.89
  },
  {
    "id": "SBE",
    "nombre": "San Bernardo",
    "tipo": "Ciudad Turística",
    "departamento": "La Costa",
    "provincia": "Buenos Aires",
    "pais": "Argentina",
    "elevacion": 8,
    "lat": -36.6867,
    "lon": -56.6767
  },
  {
    "id": "SCL",
    "nombre": "Santa Clara del Mar",
    "tipo": "Ciudad Turística",
    "departamento": "Mar Chiquita",
    "provincia": "Buenos Aires",
    "pais": "Argentina",
    "elevacion": 12,
    "lat": -37.8367,
    "lon": -57.5
  },
  {
    "id": "CHI",
    "nombre": "Chivilcoy",
    "tipo": "Ciudad",
    "departamento": "Chivilcoy",
    "provincia": "Buenos Aires",
    "pais": "Argentina",
    "elevacion": 52,
    "lat": -34.8957,
    "lon": -60.0167
  },
  {
    "id": "BRA",
    "nombre": "Bragado",
    "tipo": "Ciudad",
    "departamento": "Bragado",
    "provincia": "Buenos Aires",
    "pais": "Argentina",
    "elevacion": 59,
    "lat": -35.1167,
    "lon": -60.4833
  },
  {
    "id": "TRE",
    "nombre": "Tres Arroyos",
    "tipo": "Ciudad",
    "departamento": "Tres Arroyos",
    "provincia": "Buenos Aires",
    "pais": "Argentina",
    "elevacion": 108,
    "lat": -38.3739,
    "lon": -60.2789
  },
  {
    "id": "SAL",
    "nombre": "Saladillo",
    "tipo": "Ciudad",
    "departamento": "Saladillo",
    "provincia": "Buenos Aires",
    "pais": "Argentina",
    "elevacion": 43,
    "lat": -35.6367,
    "lon": -59.7786
  },
  {
    "id": "CPZ",
    "nombre": "Campana",
    "tipo": "Ciudad",
    "departamento": "Campana",
    "provincia": "Buenos Aires",
    "pais": "Argentina",
    "elevacion": 20,
    "lat": -34.1633,
    "lon": -58.9592
  },
  {
    "id": "ESC",
    "nombre": "Escobar",
    "tipo": "Ciudad",
    "departamento": "Escobar",
    "provincia": "Buenos Aires",
    "pais": "Argentina",
    "elevacion": 16,
    "lat": -34.35,
    "lon": -58.7833
  },
  {
    "id": "BER",
    "nombre": "Berazategui",
    "tipo": "Ciudad",
    "departamento": "Berazategui",
    "provincia": "Buenos Aires",
    "pais": "Argentina",
    "elevacion": 19,
    "lat": -34.7667,
    "lon": -58.21
  },
  {
    "id": "FVA",
    "nombre": "Florencio Varela",
    "tipo": "Ciudad",
    "departamento": "Florencio Varela",
    "provincia": "Buenos Aires",
    "pais": "Argentina",
    "elevacion": 22,
    "lat": -34.8167,
    "lon": -58.3833
  },
  {
    "id": "ENS",
    "nombre": "Ensenada",
    "tipo": "Ciudad",
    "departamento": "Ensenada",
    "provincia": "Buenos Aires",
    "pais": "Argentina",
    "elevacion": 5,
    "lat": -34.8589,
    "lon": -57.9114
  },
  {
    "id": "BEB",
    "nombre": "Berisso",
    "tipo": "Ciudad",
    "departamento": "Berisso",
    "provincia": "Buenos Aires",
    "pais": "Argentina",
    "elevacion": 4,
    "lat": -34.8744,
    "lon": -57.8825
  },
  {
    "id": "CAN",
    "nombre": "Cañuelas",
    "tipo": "Ciudad",
    "departamento": "Cañuelas",
    "provincia": "Buenos Aires",
    "pais": "Argentina",
    "elevacion": 36,
    "lat": -35.05,
    "lon": -58.75
  },
  {
    "id": "LOB",
    "nombre": "Lobos",
    "tipo": "Ciudad",
    "departamento": "Lobos",
    "provincia": "Buenos Aires",
    "pais": "Argentina",
    "elevacion": 30,
    "lat": -35.1833,
    "lon": -59.0833
  },
  {
    "id": "ROQ",
    "nombre": "Roque Pérez",
    "tipo": "Ciudad",
    "departamento": "Roque Pérez",
    "provincia": "Buenos Aires",
    "pais": "Argentina",
    "elevacion": 34,
    "lat": -35.4167,
    "lon": -59.3333
  },
  {
    "id": "PAT",
    "nombre": "Patagones",
    "tipo": "Ciudad",
    "departamento": "Patagones",
    "provincia": "Buenos Aires",
    "pais": "Argentina",
    "elevacion": 40,
    "lat": -40.8,
    "lon": -62.9833
  },
  {
    "id": "BAR",
    "nombre": "Baradero",
    "tipo": "Ciudad",
    "departamento": "Baradero",
    "provincia": "Buenos Aires",
    "pais": "Argentina",
    "elevacion": 28,
    "lat": -33.8103,
    "lon": -59.5075
  },
  {
    "id": "SAN",
    "nombre": "San Pedro",
    "tipo": "Ciudad",
    "departamento": "San Pedro",
    "provincia": "Buenos Aires",
    "pais": "Argentina",
    "elevacion": 42,
    "lat": -33.6789,
    "lon": -59.6667
  },
  {
    "id": "RAM",
    "nombre": "Ramallo",
    "tipo": "Ciudad",
    "departamento": "Ramallo",
    "provincia": "Buenos Aires",
    "pais": "Argentina",
    "elevacion": 31,
    "lat": -33.4833,
    "lon": -60
  },
  {
    "id": "ARS",
    "nombre": "Arrecifes",
    "tipo": "Ciudad",
    "departamento": "Arrecifes",
    "provincia": "Buenos Aires",
    "pais": "Argentina",
    "elevacion": 47,
    "lat": -34.0667,
    "lon": -60.1
  },
  {
    "id": "SAA",
    "nombre": "San Antonio de Areco",
    "tipo": "Ciudad",
    "departamento": "San Antonio de Areco",
    "provincia": "Buenos Aires",
    "pais": "Argentina",
    "elevacion": 39,
    "lat": -34.25,
    "lon": -59.4667
  },
  {
    "id": "MAD",
    "nombre": "Magdalena",
    "tipo": "Ciudad",
    "departamento": "Magdalena",
    "provincia": "Buenos Aires",
    "pais": "Argentina",
    "elevacion": 23,
    "lat": -35.0833,
    "lon": -57.5167
  },
  {
    "id": "CHS",
    "nombre": "Chascomús",
    "tipo": "Ciudad",
    "departamento": "Chascomús",
    "provincia": "Buenos Aires",
    "pais": "Argentina",
    "elevacion": 9,
    "lat": -35.5833,
    "lon": -58.0167
  },
  {
    "id": "DOL",
    "nombre": "Dolores",
    "tipo": "Ciudad",
    "departamento": "Dolores",
    "provincia": "Buenos Aires",
    "pais": "Argentina",
    "elevacion": 7,
    "lat": -36.3133,
    "lon": -57.6789
  },
  {
    "id": "MAB",
    "nombre": "Maipú",
    "tipo": "Ciudad",
    "departamento": "Maipú",
    "provincia": "Buenos Aires",
    "pais": "Argentina",
    "elevacion": 16,
    "lat": -36.8667,
    "lon": -57.8833
  },
  {
    "id": "AYA",
    "nombre": "Ayacucho",
    "tipo": "Ciudad",
    "departamento": "Ayacucho",
    "provincia": "Buenos Aires",
    "pais": "Argentina",
    "elevacion": 71,
    "lat": -37.15,
    "lon": -58.4833
  },
  {
    "id": "RAU",
    "nombre": "Rauch",
    "tipo": "Ciudad",
    "departamento": "Rauch",
    "provincia": "Buenos Aires",
    "pais": "Argentina",
    "elevacion": 86,
    "lat": -36.7833,
    "lon": -59.0833
  },
  {
    "id": "LFL",
    "nombre": "Las Flores",
    "tipo": "Ciudad",
    "departamento": "Las Flores",
    "provincia": "Buenos Aires",
    "pais": "Argentina",
    "elevacion": 44,
    "lat": -36.0167,
    "lon": -59.1
  },
  {
    "id": "TAP",
    "nombre": "Tapiales",
    "tipo": "Ciudad",
    "departamento": "La Matanza",
    "provincia": "Buenos Aires",
    "pais": "Argentina",
    "elevacion": 19,
    "lat": -34.7,
    "lon": -58.5167
  },
  {
    "id": "ROS",
    "nombre": "Rosario",
    "tipo": "Ciudad",
    "departamento": "Rosario",
    "provincia": "Santa Fe",
    "pais": "Argentina",
    "elevacion": 25,
    "lat": -32.9575,
    "lon": -60.6394
  },
  {
    "id": "SFE",
    "nombre": "Santa Fe",
    "tipo": "Ciudad Capital",
    "departamento": "La Capital",
    "provincia": "Santa Fe",
    "pais": "Argentina",
    "elevacion": 18,
    "lat": -31.6333,
    "lon": -60.7
  },
  {
    "id": "RAF",
    "nombre": "Rafaela",
    "tipo": "Ciudad",
    "departamento": "Castellanos",
    "provincia": "Santa Fe",
    "pais": "Argentina",
    "elevacion": 100,
    "lat": -31.2503,
    "lon": -61.4867
  },
  {
    "id": "VTO",
    "nombre": "Venado Tuerto",
    "tipo": "Ciudad",
    "departamento": "General López",
    "provincia": "Santa Fe",
    "pais": "Argentina",
    "elevacion": 112,
    "lat": -33.7458,
    "lon": -61.9649
  },
  {
    "id": "REC",
    "nombre": "Reconquista",
    "tipo": "Ciudad",
    "departamento": "General Obligado",
    "provincia": "Santa Fe",
    "pais": "Argentina",
    "elevacion": 42,
    "lat": -29.1425,
    "lon": -59.6442
  },
  {
    "id": "ESP",
    "nombre": "Esperanza",
    "tipo": "Ciudad",
    "departamento": "Las Colonias",
    "provincia": "Santa Fe",
    "pais": "Argentina",
    "elevacion": 40,
    "lat": -31.45,
    "lon": -60.9333
  },
  {
    "id": "GALSF",
    "nombre": "Gálvez",
    "tipo": "Ciudad",
    "departamento": "San Jerónimo",
    "provincia": "Santa Fe",
    "pais": "Argentina",
    "elevacion": 44,
    "lat": -32.0333,
    "lon": -61.2167
  },
  {
    "id": "SAP",
    "nombre": "San Lorenzo",
    "tipo": "Ciudad",
    "departamento": "San Lorenzo",
    "provincia": "Santa Fe",
    "pais": "Argentina",
    "elevacion": 23,
    "lat": -32.745,
    "lon": -60.7397
  },
  {
    "id": "CAS",
    "nombre": "Casilda",
    "tipo": "Ciudad",
    "departamento": "Caseros",
    "provincia": "Santa Fe",
    "pais": "Argentina",
    "elevacion": 84,
    "lat": -33.0442,
    "lon": -61.1681
  },
  {
    "id": "CANSF",
    "nombre": "Cañada de Gómez",
    "tipo": "Ciudad",
    "departamento": "Iriondo",
    "provincia": "Santa Fe",
    "pais": "Argentina",
    "elevacion": 98,
    "lat": -32.8167,
    "lon": -61.3833
  },
  {
    "id": "SJN",
    "nombre": "San Justo",
    "tipo": "Ciudad",
    "departamento": "San Justo",
    "provincia": "Santa Fe",
    "pais": "Argentina",
    "elevacion": 59,
    "lat": -30.7833,
    "lon": -60.5833
  },
  {
    "id": "GCH",
    "nombre": "Gobernador Crespo",
    "tipo": "Ciudad",
    "departamento": "San Justo",
    "provincia": "Santa Fe",
    "pais": "Argentina",
    "elevacion": 57,
    "lat": -30.3667,
    "lon": -60.4
  },
  {
    "id": "SCA",
    "nombre": "San Carlos Centro",
    "tipo": "Ciudad",
    "departamento": "Las Colonias",
    "provincia": "Santa Fe",
    "pais": "Argentina",
    "elevacion": 45,
    "lat": -31.7333,
    "lon": -61.0833
  },
  {
    "id": "TOT",
    "nombre": "Totoras",
    "tipo": "Ciudad",
    "departamento": "Iriondo",
    "provincia": "Santa Fe",
    "pais": "Argentina",
    "elevacion": 67,
    "lat": -32.5833,
    "lon": -61.1667
  },
  {
    "id": "FUN",
    "nombre": "Funes",
    "tipo": "Ciudad",
    "departamento": "Rosario",
    "provincia": "Santa Fe",
    "pais": "Argentina",
    "elevacion": 32,
    "lat": -32.9167,
    "lon": -60.8167
  },
  {
    "id": "LRJ",
    "nombre": "La Rioja",
    "tipo": "Ciudad Capital",
    "departamento": "Capital",
    "provincia": "La Rioja",
    "pais": "Argentina",
    "elevacion": 515,
    "lat": -29.4131,
    "lon": -66.8558
  },
  {
    "id": "CHILR",
    "nombre": "Chilecito",
    "tipo": "Ciudad",
    "departamento": "Chilecito",
    "provincia": "La Rioja",
    "pais": "Argentina",
    "elevacion": 945,
    "lat": -29.1667,
    "lon": -67.5
  },
  {
    "id": "AIM",
    "nombre": "Aimogasta",
    "tipo": "Ciudad",
    "departamento": "Arauco",
    "provincia": "La Rioja",
    "pais": "Argentina",
    "elevacion": 800,
    "lat": -28.5667,
    "lon": -66.8
  },
  {
    "id": "CHA",
    "nombre": "Chamical",
    "tipo": "Ciudad",
    "departamento": "Chamical",
    "provincia": "La Rioja",
    "pais": "Argentina",
    "elevacion": 461,
    "lat": -30.35,
    "lon": -66.3167
  },
  {
    "id": "CHE",
    "nombre": "Chepes",
    "tipo": "Ciudad",
    "departamento": "Rosario Vera Peñaloza",
    "provincia": "La Rioja",
    "pais": "Argentina",
    "elevacion": 1005,
    "lat": -31.3333,
    "lon": -66.5833
  },
  {
    "id": "FME",
    "nombre": "Famatina",
    "tipo": "Villa",
    "departamento": "Famatina",
    "provincia": "La Rioja",
    "pais": "Argentina",
    "elevacion": 1479,
    "lat": -28.9167,
    "lon": -67.5167
  },
  {
    "id": "VUN",
    "nombre": "Villa Unión",
    "tipo": "Ciudad",
    "departamento": "Coronel Felipe Varela",
    "provincia": "La Rioja",
    "pais": "Argentina",
    "elevacion": 1220,
    "lat": -29.3167,
    "lon": -68.2333
  },
  {
    "id": "VMA",
    "nombre": "Villa Mazán",
    "tipo": "Villa",
    "departamento": "Arauco",
    "provincia": "La Rioja",
    "pais": "Argentina",
    "elevacion": 730,
    "lat": -28.6667,
    "lon": -66.5333
  },
  {
    "id": "VCALR",
    "nombre": "Villa Castelli",
    "tipo": "Villa",
    "departamento": "General Lamadrid",
    "provincia": "La Rioja",
    "pais": "Argentina",
    "elevacion": 1210,
    "lat": -28.9833,
    "lon": -68.25
  },
  {
    "id": "ANI",
    "nombre": "Anillaco",
    "tipo": "Villa",
    "departamento": "Castro Barros",
    "provincia": "La Rioja",
    "pais": "Argentina",
    "elevacion": 1320,
    "lat": -28.8,
    "lon": -66.9333
  },
  {
    "id": "VBE",
    "nombre": "Vinchina",
    "tipo": "Villa",
    "departamento": "Vinchina",
    "provincia": "La Rioja",
    "pais": "Argentina",
    "elevacion": 1450,
    "lat": -28.75,
    "lon": -68.2
  },
  {
    "id": "SAB",
    "nombre": "Sanagasta",
    "tipo": "Villa",
    "departamento": "Sanagasta",
    "provincia": "La Rioja",
    "pais": "Argentina",
    "elevacion": 1050,
    "lat": -29.2833,
    "lon": -67.0167
  },
  {
    "id": "SJNSJ",
    "nombre": "San Juan",
    "tipo": "Ciudad Capital",
    "departamento": "Capital",
    "provincia": "San Juan",
    "pais": "Argentina",
    "elevacion": 650,
    "lat": -31.5375,
    "lon": -68.5364
  },
  {
    "id": "RAW",
    "nombre": "Rawson",
    "tipo": "Ciudad",
    "departamento": "Rawson",
    "provincia": "San Juan",
    "pais": "Argentina",
    "elevacion": 640,
    "lat": -31.5833,
    "lon": -68.5333
  },
  {
    "id": "POC",
    "nombre": "Pocito",
    "tipo": "Ciudad",
    "departamento": "Pocito",
    "provincia": "San Juan",
    "pais": "Argentina",
    "elevacion": 618,
    "lat": -31.6833,
    "lon": -68.5833
  },
  {
    "id": "CAU",
    "nombre": "Caucete",
    "tipo": "Ciudad",
    "departamento": "Caucete",
    "provincia": "San Juan",
    "pais": "Argentina",
    "elevacion": 590,
    "lat": -31.6519,
    "lon": -68.2794
  },
  {
    "id": "CHISJ",
    "nombre": "Chimbas",
    "tipo": "Ciudad",
    "departamento": "Chimbas",
    "provincia": "San Juan",
    "pais": "Argentina",
    "elevacion": 645,
    "lat": -31.4833,
    "lon": -68.5333
  },
  {
    "id": "RIV",
    "nombre": "Rivadavia",
    "tipo": "Ciudad",
    "departamento": "Rivadavia",
    "provincia": "San Juan",
    "pais": "Argentina",
    "elevacion": 660,
    "lat": -31.5333,
    "lon": -68.6
  },
  {
    "id": "ALB",
    "nombre": "Albardón",
    "tipo": "Ciudad",
    "departamento": "Albardón",
    "provincia": "San Juan",
    "pais": "Argentina",
    "elevacion": 630,
    "lat": -31.4372,
    "lon": -68.5253
  },
  {
    "id": "JAC",
    "nombre": "Jáchal",
    "tipo": "Ciudad",
    "departamento": "Jáchal",
    "provincia": "San Juan",
    "pais": "Argentina",
    "elevacion": 1150,
    "lat": -30.25,
    "lon": -68.75
  },
  {
    "id": "VAL",
    "nombre": "Valle Fértil",
    "tipo": "Villa",
    "departamento": "Valle Fértil",
    "provincia": "San Juan",
    "pais": "Argentina",
    "elevacion": 850,
    "lat": -30.6333,
    "lon": -67.4667
  },
  {
    "id": "CAL",
    "nombre": "Calingasta",
    "tipo": "Villa",
    "departamento": "Calingasta",
    "provincia": "San Juan",
    "pais": "Argentina",
    "elevacion": 1550,
    "lat": -31.3333,
    "lon": -69.4167
  },
  {
    "id": "SAR",
    "nombre": "Sarmiento",
    "tipo": "Villa",
    "departamento": "Sarmiento",
    "provincia": "San Juan",
    "pais": "Argentina",
    "elevacion": 540,
    "lat": -32.15,
    "lon": -68.5833
  },
  {
    "id": "BARSJ",
    "nombre": "Barreal",
    "tipo": "Villa",
    "departamento": "Calingasta",
    "provincia": "San Juan",
    "pais": "Argentina",
    "elevacion": 1650,
    "lat": -31.4833,
    "lon": -69.4667
  },
  {
    "id": "IGE",
    "nombre": "Iglesia",
    "tipo": "Villa",
    "departamento": "Iglesia",
    "provincia": "San Juan",
    "pais": "Argentina",
    "elevacion": 1680,
    "lat": -29.5833,
    "lon": -69.2833
  },
  {
    "id": "ROD",
    "nombre": "Rodeo",
    "tipo": "Villa",
    "departamento": "Iglesia",
    "provincia": "San Juan",
    "pais": "Argentina",
    "elevacion": 1700,
    "lat": -30.2167,
    "lon": -69.1333
  },
  {
    "id": "NQN",
    "nombre": "Neuquén",
    "tipo": "Ciudad Capital",
    "departamento": "Confluencia",
    "provincia": "Neuquén",
    "pais": "Argentina",
    "elevacion": 260,
    "lat": -38.9517,
    "lon": -68.0592
  },
  {
    "id": "CUT",
    "nombre": "Cutral Có",
    "tipo": "Ciudad",
    "departamento": "Confluencia",
    "provincia": "Neuquén",
    "pais": "Argentina",
    "elevacion": 582,
    "lat": -38.9333,
    "lon": -69.2333
  },
  {
    "id": "SMD",
    "nombre": "San Martín de los Andes",
    "tipo": "Ciudad",
    "departamento": "Lácar",
    "provincia": "Neuquén",
    "pais": "Argentina",
    "elevacion": 640,
    "lat": -40.1553,
    "lon": -71.3548
  },
  {
    "id": "VLANQ",
    "nombre": "Villa La Angostura",
    "tipo": "Ciudad",
    "departamento": "Los Lagos",
    "provincia": "Neuquén",
    "pais": "Argentina",
    "elevacion": 780,
    "lat": -40.7626,
    "lon": -71.6422
  },
  {
    "id": "ZAP",
    "nombre": "Zapala",
    "tipo": "Ciudad",
    "departamento": "Zapala",
    "provincia": "Neuquén",
    "pais": "Argentina",
    "elevacion": 1012,
    "lat": -38.9,
    "lon": -70.0667
  },
  {
    "id": "PMANQ",
    "nombre": "Plaza Huincul",
    "tipo": "Ciudad",
    "departamento": "Confluencia",
    "provincia": "Neuquén",
    "pais": "Argentina",
    "elevacion": 582,
    "lat": -38.93,
    "lon": -69.2
  },
  {
    "id": "CIP",
    "nombre": "Cipolletti",
    "tipo": "Ciudad",
    "departamento": "General Roca",
    "provincia": "Neuquén",
    "pais": "Argentina",
    "elevacion": 265,
    "lat": -38.9333,
    "lon": -67.99
  },
  {
    "id": "CEN",
    "nombre": "Centenario",
    "tipo": "Ciudad",
    "departamento": "Confluencia",
    "provincia": "Neuquén",
    "pais": "Argentina",
    "elevacion": 273,
    "lat": -38.8333,
    "lon": -68.1333
  },
  {
    "id": "JUA",
    "nombre": "Junín de los Andes",
    "tipo": "Ciudad",
    "departamento": "Huiliches",
    "provincia": "Neuquén",
    "pais": "Argentina",
    "elevacion": 765,
    "lat": -39.95,
    "lon": -71.0833
  },
  {
    "id": "ALU",
    "nombre": "Aluminé",
    "tipo": "Ciudad",
    "departamento": "Aluminé",
    "provincia": "Neuquén",
    "pais": "Argentina",
    "elevacion": 800,
    "lat": -39.2333,
    "lon": -70.9167
  },
  {
    "id": "AND",
    "nombre": "Andacollo",
    "tipo": "Ciudad",
    "departamento": "Minas",
    "provincia": "Neuquén",
    "pais": "Argentina",
    "elevacion": 1113,
    "lat": -37.1833,
    "lon": -70.6667
  },
  {
    "id": "LON",
    "nombre": "Loncopué",
    "tipo": "Ciudad",
    "departamento": "Loncopué",
    "provincia": "Neuquén",
    "pais": "Argentina",
    "elevacion": 958,
    "lat": -38.0667,
    "lon": -70.6167
  },
  {
    "id": "PDI",
    "nombre": "Piedra del Águila",
    "tipo": "Ciudad",
    "departamento": "Collón Curá",
    "provincia": "Neuquén",
    "pais": "Argentina",
    "elevacion": 540,
    "lat": -40.05,
    "lon": -70.0833
  },
  {
    "id": "VPE",
    "nombre": "Villa Pehuenia",
    "tipo": "Villa",
    "departamento": "Aluminé",
    "provincia": "Neuquén",
    "pais": "Argentina",
    "elevacion": 1310,
    "lat": -38.8833,
    "lon": -71.1833
  },
  {
    "id": "RÍOGRANDE",
    "nombre": "Río Gallegos",
    "tipo": "Ciudad",
    "departamento": "Río Gallegos",
    "provincia": "Santa Cruz",
    "pais": "Argentina",
    "elevacion": 50,
    "lat": -51.625,
    "lon": -69.2178
  },
  {
    "id": "ELCALAFATE",
    "nombre": "El Calafate",
    "tipo": "Ciudad",
    "departamento": "Calafate",
    "provincia": "Santa Cruz",
    "pais": "Argentina",
    "elevacion": 200,
    "lat": -50.3373,
    "lon": -72.2813
  },
  {
    "id": "ELCHALE",
    "nombre": "El Chaltén",
    "tipo": "Pueblo",
    "departamento": "Lago Viedma",
    "provincia": "Santa Cruz",
    "pais": "Argentina",
    "elevacion": 400,
    "lat": -49.3472,
    "lon": -72.8778
  },
  {
    "id": "CALETAOLIVIA",
    "nombre": "Caleta Olivia",
    "tipo": "Ciudad",
    "departamento": "Magallanes",
    "provincia": "Santa Cruz",
    "pais": "Argentina",
    "elevacion": 30,
    "lat": -46.4133,
    "lon": -67.5139
  },
  {
    "id": "PUERTOSANTACRUZ",
    "nombre": "Puerto Santa Cruz",
    "tipo": "Pueblo",
    "departamento": "Santa Cruz",
    "provincia": "Santa Cruz",
    "pais": "Argentina",
    "elevacion": 10,
    "lat": -49.3706,
    "lon": -68.5992
  },
  {
    "id": "PUNTAARENAS",
    "nombre": "Punta Arenas",
    "tipo": "Pueblo",
    "departamento": "Magallanes",
    "provincia": "Santa Cruz",
    "pais": "Argentina",
    "elevacion": 50,
    "lat": -51.6167,
    "lon": -69.25
  },
  {
    "id": "GOBERNADORLUGONES",
    "nombre": "Gobernador Gregores",
    "tipo": "Pueblo",
    "departamento": "Gregores",
    "provincia": "Santa Cruz",
    "pais": "Argentina",
    "elevacion": 200,
    "lat": -47.55,
    "lon": -68.2833
  },
  {
    "id": "LASHERAS",
    "nombre": "Las Heras",
    "tipo": "Pueblo",
    "departamento": "Las Heras",
    "provincia": "Santa Cruz",
    "pais": "Argentina",
    "elevacion": 100,
    "lat": -46.6667,
    "lon": -68.7667
  },
  {
    "id": "RÍOGALLEGOS2",
    "nombre": "Río Gallegos 2",
    "tipo": "Pueblo",
    "departamento": "Gallegos",
    "provincia": "Santa Cruz",
    "pais": "Argentina",
    "elevacion": 50,
    "lat": -51.625,
    "lon": -69.2178
  },
  {
    "id": "SOTOMAYOR",
    "nombre": "Sotomayor",
    "tipo": "Pueblo",
    "departamento": "Río Mayo",
    "provincia": "Santa Cruz",
    "pais": "Argentina",
    "elevacion": 300,
    "lat": -46.8333,
    "lon": -69.3333
  },
  {
    "id": "CAIBUCA",
    "nombre": "Caibuca",
    "tipo": "Pueblo",
    "departamento": "San Julián",
    "provincia": "Santa Cruz",
    "pais": "Argentina",
    "elevacion": 50,
    "lat": -49.8,
    "lon": -67.5
  },
  {
    "id": "PUEBLOSOTOMAYOR",
    "nombre": "Pueblo Sotomayor",
    "tipo": "Pueblo",
    "departamento": "Río Mayo",
    "provincia": "Santa Cruz",
    "pais": "Argentina",
    "elevacion": 300,
    "lat": -46.8222,
    "lon": -69.2875
  },
  {
    "id": "CAMPOAZUL",
    "nombre": "Campo Azul",
    "tipo": "Pueblo",
    "departamento": "Campo Azul",
    "provincia": "Santa Cruz",
    "pais": "Argentina",
    "elevacion": 150,
    "lat": -49.465,
    "lon": -67.25
  },
  {
    "id": "EQUIMES",
    "nombre": "Equimes",
    "tipo": "Pueblo",
    "departamento": "Lago Viedma",
    "provincia": "Santa Cruz",
    "pais": "Argentina",
    "elevacion": 150,
    "lat": -50.85,
    "lon": -72.75
  },
  {
    "id": "LOSANTIGUOS",
    "nombre": "Los Antiguos",
    "tipo": "Pueblo",
    "departamento": "Lago Buenos Aires",
    "provincia": "Santa Cruz",
    "pais": "Argentina",
    "elevacion": 250,
    "lat": -46.3833,
    "lon": -71.75
  },
  {
    "id": "CALAFATE",
    "nombre": "El Calafate",
    "tipo": "Ciudad",
    "departamento": "Calafate",
    "provincia": "Santa Cruz",
    "pais": "Argentina",
    "elevacion": 500,
    "lat": -50.3373,
    "lon": -72.2813
  },
  {
    "id": "RAWSON",
    "nombre": "Rawson",
    "tipo": "Ciudad",
    "departamento": "Rawson",
    "provincia": "Chubut",
    "pais": "Argentina",
    "elevacion": 6,
    "lat": -43.3,
    "lon": -65.1
  },
  {
    "id": "TRELEW",
    "nombre": "Trelew",
    "tipo": "Ciudad",
    "departamento": "Biedma",
    "provincia": "Chubut",
    "pais": "Argentina",
    "elevacion": 42,
    "lat": -43.2543,
    "lon": -65.3038
  },
  {
    "id": "COMODORO",
    "nombre": "Comodoro Rivadavia",
    "tipo": "Ciudad",
    "departamento": "Escalante",
    "provincia": "Chubut",
    "pais": "Argentina",
    "elevacion": 62,
    "lat": -45.8667,
    "lon": -67.5
  },
  {
    "id": "PUERTOMADRYN",
    "nombre": "Puerto Madryn",
    "tipo": "Ciudad",
    "departamento": "Biedma",
    "provincia": "Chubut",
    "pais": "Argentina",
    "elevacion": 0,
    "lat": -42.7667,
    "lon": -65.0333
  },
  {
    "id": "ESQUEL",
    "nombre": "Esquel",
    "tipo": "Ciudad",
    "departamento": "Esquel",
    "provincia": "Chubut",
    "pais": "Argentina",
    "elevacion": 500,
    "lat": -42.9,
    "lon": -71.3167
  },
  {
    "id": "GOLONDRINAS",
    "nombre": "Golondrinas",
    "tipo": "Pueblo",
    "departamento": "Cholila",
    "provincia": "Chubut",
    "pais": "Argentina",
    "elevacion": 300,
    "lat": -42.5833,
    "lon": -71.4667
  },
  {
    "id": "TRELEW2",
    "nombre": "Trelew 2",
    "tipo": "Pueblo",
    "departamento": "Biedma",
    "provincia": "Chubut",
    "pais": "Argentina",
    "elevacion": 20,
    "lat": -43.28,
    "lon": -65.3125
  },
  {
    "id": "SARMIENTO",
    "nombre": "Sarmiento",
    "tipo": "Ciudad",
    "departamento": "Sarmiento",
    "provincia": "Chubut",
    "pais": "Argentina",
    "elevacion": 230,
    "lat": -45.6333,
    "lon": -67.55
  },
  {
    "id": "CAMPODEGOMES",
    "nombre": "Campo de Gomes",
    "tipo": "Pueblo",
    "departamento": "Esquel",
    "provincia": "Chubut",
    "pais": "Argentina",
    "elevacion": 400,
    "lat": -42.9444,
    "lon": -71.1789
  },
  {
    "id": "RIOPEQUEÑO",
    "nombre": "Río Pequeño",
    "tipo": "Pueblo",
    "departamento": "Gaiman",
    "provincia": "Chubut",
    "pais": "Argentina",
    "elevacion": 130,
    "lat": -43.263,
    "lon": -65.1678
  },
  {
    "id": "CAMPODELOSALVADOR",
    "nombre": "Campo de los Salvador",
    "tipo": "Pueblo",
    "departamento": "Cholila",
    "provincia": "Chubut",
    "pais": "Argentina",
    "elevacion": 250,
    "lat": -42.7033,
    "lon": -71.3633
  },
  {
    "id": "CONDESA",
    "nombre": "Condesa",
    "tipo": "Pueblo",
    "departamento": "Gaiman",
    "provincia": "Chubut",
    "pais": "Argentina",
    "elevacion": 140,
    "lat": -43.1056,
    "lon": -65.3074
  },
  {
    "id": "CAMPOLOSALMON",
    "nombre": "Campo Los Almon",
    "tipo": "Pueblo",
    "departamento": "Telsen",
    "provincia": "Chubut",
    "pais": "Argentina",
    "elevacion": 180,
    "lat": -44.0167,
    "lon": -66.5
  },
  {
    "id": "PAQUETEGALERIA",
    "nombre": "Paquete Galería",
    "tipo": "Pueblo",
    "departamento": "Rivadavia",
    "provincia": "Chubut",
    "pais": "Argentina",
    "elevacion": 200,
    "lat": -43.7575,
    "lon": -65.59
  },
  {
    "id": "ALDEAABEJALINDA",
    "nombre": "Aldea Abeja Linda",
    "tipo": "Pueblo",
    "departamento": "Esquel",
    "provincia": "Chubut",
    "pais": "Argentina",
    "elevacion": 300,
    "lat": -42.978,
    "lon": -71.469
  },
  {
    "id": "LAADUANA",
    "nombre": "La Aduana",
    "tipo": "Pueblo",
    "departamento": "Cushamen",
    "provincia": "Chubut",
    "pais": "Argentina",
    "elevacion": 750,
    "lat": -43.1,
    "lon": -71.6667
  },
  {
    "id": "USH",
    "nombre": "Ushuaia",
    "tipo": "Ciudad",
    "departamento": " Ushuaia",
    "provincia": "Tierra del Fuego",
    "pais": "Argentina",
    "elevacion": 0,
    "lat": -54.8019,
    "lon": -68.3029
  },
  {
    "id": "RIOGRANDE",
    "nombre": "Río Grande",
    "tipo": "Ciudad",
    "departamento": "Río Grande",
    "provincia": "Tierra del Fuego",
    "pais": "Argentina",
    "elevacion": 23,
    "lat": -53.7917,
    "lon": -67.7
  },
  {
    "id": "MARTINGARCIA",
    "nombre": "Martín García",
    "tipo": "Pueblo",
    "departamento": "Ushuaia",
    "provincia": "Tierra del Fuego",
    "pais": "Argentina",
    "elevacion": 15,
    "lat": -54.7694,
    "lon": -68.315
  },
  {
    "id": "SANSEBASTIAN",
    "nombre": "San Sebastián",
    "tipo": "Pueblo",
    "departamento": "Islas Malvinas",
    "provincia": "Tierra del Fuego",
    "pais": "Argentina",
    "elevacion": 30,
    "lat": -53.875,
    "lon": -67.25
  },
  {
    "id": "LAUQUEN",
    "nombre": "Lauquen",
    "tipo": "Pueblo",
    "departamento": "Ushuaia",
    "provincia": "Tierra del Fuego",
    "pais": "Argentina",
    "elevacion": 25,
    "lat": -54.7167,
    "lon": -68.3667
  },
  {
    "id": "CAMPODEMAYO",
    "nombre": "Campo de Mayo",
    "tipo": "Pueblo",
    "departamento": "Río Grande",
    "provincia": "Tierra del Fuego",
    "pais": "Argentina",
    "elevacion": 50,
    "lat": -53.6833,
    "lon": -67.6167
  },
  {
    "id": "TOBERIA",
    "nombre": "Tobería",
    "tipo": "Pueblo",
    "departamento": "Ushuaia",
    "provincia": "Tierra del Fuego",
    "pais": "Argentina",
    "elevacion": 60,
    "lat": -54.7811,
    "lon": -68.4167
  },
  {
    "id": "GALLINOSA",
    "nombre": "Gallinosa",
    "tipo": "Pueblo",
    "departamento": "Río Grande",
    "provincia": "Tierra del Fuego",
    "pais": "Argentina",
    "elevacion": 40,
    "lat": -53.858,
    "lon": -67.77
  },
  {
    "id": "ALTOLAGO",
    "nombre": "Alto Lago",
    "tipo": "Pueblo",
    "departamento": "Río Grande",
    "provincia": "Tierra del Fuego",
    "pais": "Argentina",
    "elevacion": 20,
    "lat": -53.817,
    "lon": -67.7398
  },
  {
    "id": "CANALBEAGLE",
    "nombre": "Canal Beagle",
    "tipo": "Zona Costera",
    "departamento": "Ushuaia",
    "provincia": "Tierra del Fuego",
    "pais": "Argentina",
    "elevacion": 5,
    "lat": -54.68,
    "lon": -68.3
  },
  {
    "id": "MALVINAS",
    "nombre": "Malvinas Argentinas",
    "tipo": "Pueblo",
    "departamento": "Islas Malvinas",
    "provincia": "Tierra del Fuego",
    "pais": "Argentina",
    "elevacion": 12,
    "lat": -54.517,
    "lon": -68.1333
  },
  {
    "id": "PRIMERODEMAYO",
    "nombre": "Primero de Mayo",
    "tipo": "Pueblo",
    "departamento": "Río Grande",
    "provincia": "Tierra del Fuego",
    "pais": "Argentina",
    "elevacion": 20,
    "lat": -53.7493,
    "lon": -67.7172
  },
  {
    "id": "PUNTAARENAS",
    "nombre": "Punta Arenas",
    "tipo": "Pueblo",
    "departamento": "Río Grande",
    "provincia": "Tierra del Fuego",
    "pais": "Argentina",
    "elevacion": 14,
    "lat": -53.6803,
    "lon": -67.95
  },
  {
    "id": "LAKORRE",
    "nombre": "La Korra",
    "tipo": "Pueblo",
    "departamento": "Ushuaia",
    "provincia": "Tierra del Fuego",
    "pais": "Argentina",
    "elevacion": 25,
    "lat": -54.6743,
    "lon": -68.2555
  },
  {
    "id": "SANSL",
    "nombre": "San Salvador de Jujuy",
    "tipo": "Ciudad",
    "departamento": "Doctor Manuel Belgrano",
    "provincia": "Jujuy",
    "pais": "Argentina",
    "elevacion": 1238,
    "lat": -24.1858,
    "lon": -65.2995
  },
  {
    "id": "PALP",
    "nombre": "Palpalá",
    "tipo": "Ciudad",
    "departamento": "Palpalá",
    "provincia": "Jujuy",
    "pais": "Argentina",
    "elevacion": 1120,
    "lat": -24.2583,
    "lon": -65.2116
  },
  {
    "id": "PER",
    "nombre": "Perico",
    "tipo": "Ciudad",
    "departamento": "El Carmen",
    "provincia": "Jujuy",
    "pais": "Argentina",
    "elevacion": 1237,
    "lat": -24.3812,
    "lon": -65.1155
  },
  {
    "id": "LIBERTADOR",
    "nombre": "Libertador General San Martín",
    "tipo": "Ciudad",
    "departamento": "Ledesma",
    "provincia": "Jujuy",
    "pais": "Argentina",
    "elevacion": 473,
    "lat": -23.8191,
    "lon": -64.7895
  },
  {
    "id": "HUMAHUACA",
    "nombre": "Humahuaca",
    "tipo": "Ciudad",
    "departamento": "Humahuaca",
    "provincia": "Jujuy",
    "pais": "Argentina",
    "elevacion": 2950,
    "lat": -23.2057,
    "lon": -65.3494
  },
  {
    "id": "TILCARA",
    "nombre": "Tilcara",
    "tipo": "Ciudad",
    "departamento": "Tilcara",
    "provincia": "Jujuy",
    "pais": "Argentina",
    "elevacion": 2465,
    "lat": -23.5764,
    "lon": -65.3958
  },
  {
    "id": "SANPEDRO",
    "nombre": "San Pedro de Jujuy",
    "tipo": "Ciudad",
    "departamento": "San Pedro",
    "provincia": "Jujuy",
    "pais": "Argentina",
    "elevacion": 597,
    "lat": -24.2325,
    "lon": -64.8655
  },
  {
    "id": "MAIMARA",
    "nombre": "Maimará",
    "tipo": "Pueblo",
    "departamento": "Tilcara",
    "provincia": "Jujuy",
    "pais": "Argentina",
    "elevacion": 2385,
    "lat": -23.6033,
    "lon": -65.4128
  },
  {
    "id": "YALA",
    "nombre": "Yala",
    "tipo": "Pueblo",
    "departamento": "Doctor Manuel Belgrano",
    "provincia": "Jujuy",
    "pais": "Argentina",
    "elevacion": 1523,
    "lat": -24.1104,
    "lon": -65.3933
  },
  {
    "id": "ABRA",
    "nombre": "Abra Pampa",
    "tipo": "Ciudad",
    "departamento": "Cochinoca",
    "provincia": "Jujuy",
    "pais": "Argentina",
    "elevacion": 3484,
    "lat": -22.7175,
    "lon": -65.6975
  },
  {
    "id": "CALILEGUA",
    "nombre": "Calilegua",
    "tipo": "Ciudad",
    "departamento": "Ledesma",
    "provincia": "Jujuy",
    "pais": "Argentina",
    "elevacion": 460,
    "lat": -23.7883,
    "lon": -64.7717
  },
  {
    "id": "LAQUIACA",
    "nombre": "La Quiaca",
    "tipo": "Ciudad",
    "departamento": "Yavi",
    "provincia": "Jujuy",
    "pais": "Argentina",
    "elevacion": 3442,
    "lat": -22.1022,
    "lon": -65.5922
  },
  {
    "id": "PURMAMARCA",
    "nombre": "Purmamarca",
    "tipo": "Pueblo",
    "departamento": "Tumbaya",
    "provincia": "Jujuy",
    "pais": "Argentina",
    "elevacion": 2192,
    "lat": -23.7455,
    "lon": -65.4964
  },
  {
    "id": "MONTER",
    "nombre": "Monterrico",
    "tipo": "Ciudad",
    "departamento": "El Carmen",
    "provincia": "Jujuy",
    "pais": "Argentina",
    "elevacion": 1225,
    "lat": -24.3993,
    "lon": -65.1455
  },
  {
    "id": "SUSQUES",
    "nombre": "Susques",
    "tipo": "Pueblo",
    "departamento": "Susques",
    "provincia": "Jujuy",
    "pais": "Argentina",
    "elevacion": 3669,
    "lat": -23.4167,
    "lon": -66.4833
  },
  {
    "id": "FRAILE",
    "nombre": "Fraile Pintado",
    "tipo": "Ciudad",
    "departamento": "Ledesma",
    "provincia": "Jujuy",
    "pais": "Argentina",
    "elevacion": 487,
    "lat": -23.9333,
    "lon": -64.8
  },
  {
    "id": "TUMBAYA",
    "nombre": "Tumbaya",
    "tipo": "Pueblo",
    "departamento": "Tumbaya",
    "provincia": "Jujuy",
    "pais": "Argentina",
    "elevacion": 2090,
    "lat": -23.7406,
    "lon": -65.4797
  },
  {
    "id": "PALMA",
    "nombre": "Palma Sola",
    "tipo": "Ciudad",
    "departamento": "Santa Bárbara",
    "provincia": "Jujuy",
    "pais": "Argentina",
    "elevacion": 420,
    "lat": -23.9167,
    "lon": -64.5167
  },
  {
    "id": "RINCON",
    "nombre": "Rinconada",
    "tipo": "Pueblo",
    "departamento": "Rinconada",
    "provincia": "Jujuy",
    "pais": "Argentina",
    "elevacion": 3850,
    "lat": -22.4333,
    "lon": -66.1667
  },
  {
    "id": "CAIMANCITO",
    "nombre": "Caimancito",
    "tipo": "Ciudad",
    "departamento": "Ledesma",
    "provincia": "Jujuy",
    "pais": "Argentina",
    "elevacion": 512,
    "lat": -23.75,
    "lon": -64.7833
  },
  {
    "id": "ELTALAR",
    "nombre": "El Talar",
    "tipo": "Pueblo",
    "departamento": "Santa Bárbara",
    "provincia": "Jujuy",
    "pais": "Argentina",
    "elevacion": 422,
    "lat": -23.7667,
    "lon": -64.5667
  },
  {
    "id": "VOLCAN",
    "nombre": "Volcán",
    "tipo": "Pueblo",
    "departamento": "Tumbaya",
    "provincia": "Jujuy",
    "pais": "Argentina",
    "elevacion": 2070,
    "lat": -23.7075,
    "lon": -65.4536
  },
  {
    "id": "ABRADE",
    "nombre": "Abra de los Molles",
    "tipo": "Pueblo",
    "departamento": "Santa Catalina",
    "provincia": "Jujuy",
    "pais": "Argentina",
    "elevacion": 3800,
    "lat": -22.2333,
    "lon": -66.0833
  },
  {
    "id": "CASIRA",
    "nombre": "Casira",
    "tipo": "Pueblo",
    "departamento": "Santa Catalina",
    "provincia": "Jujuy",
    "pais": "Argentina",
    "elevacion": 3790,
    "lat": -21.8667,
    "lon": -66.0333
  },
  {
    "id": "CHALICAN",
    "nombre": "Chalican",
    "tipo": "Pueblo",
    "departamento": "Ledesma",
    "provincia": "Jujuy",
    "pais": "Argentina",
    "elevacion": 498,
    "lat": -23.75,
    "lon": -64.8167
  },
  {
    "id": "POS",
    "nombre": "Posadas",
    "tipo": "Ciudad",
    "departamento": "Capital",
    "provincia": "Misiones",
    "pais": "Argentina",
    "elevacion": 54,
    "lat": -27.3625,
    "lon": -55.9
  },
  {
    "id": "OBE",
    "nombre": "Oberá",
    "tipo": "Ciudad",
    "departamento": "Oberá",
    "provincia": "Misiones",
    "pais": "Argentina",
    "elevacion": 298,
    "lat": -27.4871,
    "lon": -55.1199
  },
  {
    "id": "IGR",
    "nombre": "Puerto Iguazú",
    "tipo": "Ciudad",
    "departamento": "Iguazú",
    "provincia": "Misiones",
    "pais": "Argentina",
    "elevacion": 207,
    "lat": -25.5991,
    "lon": -54.5736
  },
  {
    "id": "ELEDORADO",
    "nombre": "Eldorado",
    "tipo": "Ciudad",
    "departamento": "Eldorado",
    "provincia": "Misiones",
    "pais": "Argentina",
    "elevacion": 231,
    "lat": -26.4081,
    "lon": -54.6942
  },
  {
    "id": "APO",
    "nombre": "Apóstoles",
    "tipo": "Ciudad",
    "departamento": "Apóstoles",
    "provincia": "Misiones",
    "pais": "Argentina",
    "elevacion": 143,
    "lat": -27.9147,
    "lon": -55.7544
  },
  {
    "id": "ARISTOB",
    "nombre": "Aristóbulo del Valle",
    "tipo": "Ciudad",
    "departamento": "Cainguás",
    "provincia": "Misiones",
    "pais": "Argentina",
    "elevacion": 360,
    "lat": -27.1031,
    "lon": -54.8986
  },
  {
    "id": "LEANDRON",
    "nombre": "Leandro N. Alem",
    "tipo": "Ciudad",
    "departamento": "Leandro N. Alem",
    "provincia": "Misiones",
    "pais": "Argentina",
    "elevacion": 251,
    "lat": -27.6067,
    "lon": -55.3244
  },
  {
    "id": "SANVIC",
    "nombre": "San Vicente",
    "tipo": "Ciudad",
    "departamento": "Guaraní",
    "provincia": "Misiones",
    "pais": "Argentina",
    "elevacion": 362,
    "lat": -26.9861,
    "lon": -54.1286
  },
  {
    "id": "JARDIN",
    "nombre": "Jardín América",
    "tipo": "Ciudad",
    "departamento": "San Ignacio",
    "provincia": "Misiones",
    "pais": "Argentina",
    "elevacion": 187,
    "lat": -27.0389,
    "lon": -55.2306
  },
  {
    "id": "MONTE",
    "nombre": "Montecarlo",
    "tipo": "Ciudad",
    "departamento": "Montecarlo",
    "provincia": "Misiones",
    "pais": "Argentina",
    "elevacion": 193,
    "lat": -26.5672,
    "lon": -54.7586
  },
  {
    "id": "CANDELARIA",
    "nombre": "Candelaria",
    "tipo": "Ciudad",
    "departamento": "Capital",
    "provincia": "Misiones",
    "pais": "Argentina",
    "elevacion": 66,
    "lat": -27.4583,
    "lon": -55.7444
  },
  {
    "id": "GARU",
    "nombre": "Garupá",
    "tipo": "Ciudad",
    "departamento": "Capital",
    "provincia": "Misiones",
    "pais": "Argentina",
    "elevacion": 77,
    "lat": -27.4828,
    "lon": -55.8292
  },
  {
    "id": "SANIGNACIO",
    "nombre": "San Ignacio",
    "tipo": "Ciudad",
    "departamento": "San Ignacio",
    "provincia": "Misiones",
    "pais": "Argentina",
    "elevacion": 116,
    "lat": -27.2553,
    "lon": -55.5306
  },
  {
    "id": "ANDRESITO",
    "nombre": "Comandante Andresito",
    "tipo": "Ciudad",
    "departamento": "General Manuel Belgrano",
    "provincia": "Misiones",
    "pais": "Argentina",
    "elevacion": 253,
    "lat": -25.6731,
    "lon": -54.02
  },
  {
    "id": "PUERTOESPERANZA",
    "nombre": "Puerto Esperanza",
    "tipo": "Ciudad",
    "departamento": "Iguazú",
    "provincia": "Misiones",
    "pais": "Argentina",
    "elevacion": 202,
    "lat": -26.0183,
    "lon": -54.6094
  },
  {
    "id": "PUERTOPIRAY",
    "nombre": "Puerto Piray",
    "tipo": "Ciudad",
    "departamento": "Eldorado",
    "provincia": "Misiones",
    "pais": "Argentina",
    "elevacion": 159,
    "lat": -26.4672,
    "lon": -54.7114
  },
  {
    "id": "RUIZS",
    "nombre": "Ruiz de Montoya",
    "tipo": "Ciudad",
    "departamento": "San Ignacio",
    "provincia": "Misiones",
    "pais": "Argentina",
    "elevacion": 177,
    "lat": -26.9792,
    "lon": -55.0531
  },
  {
    "id": "WANDA",
    "nombre": "Wanda",
    "tipo": "Ciudad",
    "departamento": "Iguazú",
    "provincia": "Misiones",
    "pais": "Argentina",
    "elevacion": 197,
    "lat": -25.9744,
    "lon": -54.5647
  },
  {
    "id": "SANPEDRO",
    "nombre": "San Pedro",
    "tipo": "Ciudad",
    "departamento": "San Pedro",
    "provincia": "Misiones",
    "pais": "Argentina",
    "elevacion": 547,
    "lat": -26.6225,
    "lon": -54.1083
  },
  {
    "id": "GOBERNADOR",
    "nombre": "Gobernador Roca",
    "tipo": "Ciudad",
    "departamento": "San Ignacio",
    "provincia": "Misiones",
    "pais": "Argentina",
    "elevacion": 149,
    "lat": -27.1969,
    "lon": -55.4728
  },
  {
    "id": "CAPIOVI",
    "nombre": "Capioví",
    "tipo": "Ciudad",
    "departamento": "Libertador General San Martín",
    "provincia": "Misiones",
    "pais": "Argentina",
    "elevacion": 167,
    "lat": -26.9272,
    "lon": -55.0561
  },
  {
    "id": "PUERTOLEONI",
    "nombre": "Puerto Leoni",
    "tipo": "Ciudad",
    "departamento": "Libertador General San Martín",
    "provincia": "Misiones",
    "pais": "Argentina",
    "elevacion": 182,
    "lat": -26.9583,
    "lon": -55.1286
  },
  {
    "id": "CERROAZUL",
    "nombre": "Cerro Azul",
    "tipo": "Ciudad",
    "departamento": "Leandro N. Alem",
    "provincia": "Misiones",
    "pais": "Argentina",
    "elevacion": 233,
    "lat": -27.6322,
    "lon": -55.4922
  },
  {
    "id": "DOSDE",
    "nombre": "Dos de Mayo",
    "tipo": "Ciudad",
    "departamento": "Cainguás",
    "provincia": "Misiones",
    "pais": "Argentina",
    "elevacion": 364,
    "lat": -27.0233,
    "lon": -54.6875
  },
  {
    "id": "ALBA",
    "nombre": "Alba Posse",
    "tipo": "Ciudad",
    "departamento": "25 de Mayo",
    "provincia": "Misiones",
    "pais": "Argentina",
    "elevacion": 128,
    "lat": -27.5642,
    "lon": -54.6889
  },
  {
    "id": "FORM",
    "nombre": "Formosa",
    "tipo": "Ciudad",
    "departamento": "Formosa",
    "provincia": "Formosa",
    "pais": "Argentina",
    "elevacion": 57,
    "lat": -26.1849,
    "lon": -58.1731
  },
  {
    "id": "CLORINDA",
    "nombre": "Clorinda",
    "tipo": "Ciudad",
    "departamento": "Pilcomayo",
    "provincia": "Formosa",
    "pais": "Argentina",
    "elevacion": 63,
    "lat": -25.2833,
    "lon": -57.7333
  },
  {
    "id": "LAMADRID",
    "nombre": "General Manuel Belgrano",
    "tipo": "Ciudad",
    "departamento": "General Manuel Belgrano",
    "provincia": "Formosa",
    "pais": "Argentina",
    "elevacion": 60,
    "lat": -24.9281,
    "lon": -58.2806
  },
  {
    "id": "IBARRETA",
    "nombre": "Ibarreta",
    "tipo": "Ciudad",
    "departamento": "Patiño",
    "provincia": "Formosa",
    "pais": "Argentina",
    "elevacion": 80,
    "lat": -25.2131,
    "lon": -59.8575
  },
  {
    "id": "LAGUNA-B",
    "nombre": "Laguna Blanca",
    "tipo": "Ciudad",
    "departamento": "Pilcomayo",
    "provincia": "Formosa",
    "pais": "Argentina",
    "elevacion": 65,
    "lat": -25.1217,
    "lon": -58.2567
  },
  {
    "id": "EL-COLORA",
    "nombre": "El Colorado",
    "tipo": "Ciudad",
    "departamento": "Pirané",
    "provincia": "Formosa",
    "pais": "Argentina",
    "elevacion": 53,
    "lat": -26.3083,
    "lon": -59.3736
  },
  {
    "id": "LAS-LOMAS",
    "nombre": "Las Lomitas",
    "tipo": "Ciudad",
    "departamento": "Patiño",
    "provincia": "Formosa",
    "pais": "Argentina",
    "elevacion": 82,
    "lat": -24.7108,
    "lon": -60.5986
  },
  {
    "id": "PIRANE",
    "nombre": "Pirané",
    "tipo": "Ciudad",
    "departamento": "Pirané",
    "provincia": "Formosa",
    "pais": "Argentina",
    "elevacion": 78,
    "lat": -25.7333,
    "lon": -59.1083
  },
  {
    "id": "VILLAFANE",
    "nombre": "Villa Dos Trece",
    "tipo": "Ciudad",
    "departamento": "Pirané",
    "provincia": "Formosa",
    "pais": "Argentina",
    "elevacion": 55,
    "lat": -26.2475,
    "lon": -59.3342
  },
  {
    "id": "LAGUNA-NA",
    "nombre": "Laguna Naick-Neck",
    "tipo": "Ciudad",
    "departamento": "Pilagás",
    "provincia": "Formosa",
    "pais": "Argentina",
    "elevacion": 62,
    "lat": -25.1275,
    "lon": -58.6167
  },
  {
    "id": "RIACHO-H",
    "nombre": "Riacho He-Hé",
    "tipo": "Ciudad",
    "departamento": "Pilagás",
    "provincia": "Formosa",
    "pais": "Argentina",
    "elevacion": 59,
    "lat": -25.0278,
    "lon": -58.3161
  },
  {
    "id": "GRANDE",
    "nombre": "Buena Vista",
    "tipo": "Ciudad",
    "departamento": "Pilcomayo",
    "provincia": "Formosa",
    "pais": "Argentina",
    "elevacion": 70,
    "lat": -24.9606,
    "lon": -58.5181
  },
  {
    "id": "VILLAFANE",
    "nombre": "Villa Escolar",
    "tipo": "Ciudad",
    "departamento": "Formosa",
    "provincia": "Formosa",
    "pais": "Argentina",
    "elevacion": 56,
    "lat": -26.6358,
    "lon": -58.7247
  },
  {
    "id": "COLONIA-P",
    "nombre": "Colonia Pastoril",
    "tipo": "Ciudad",
    "departamento": "Formosa",
    "provincia": "Formosa",
    "pais": "Argentina",
    "elevacion": 54,
    "lat": -26.1286,
    "lon": -58.2297
  },
  {
    "id": "ESPINILLO",
    "nombre": "El Espinillo",
    "tipo": "Ciudad",
    "departamento": "Pilcomayo",
    "provincia": "Formosa",
    "pais": "Argentina",
    "elevacion": 64,
    "lat": -24.9356,
    "lon": -58.2314
  },
  {
    "id": "POZO-DE-T",
    "nombre": "Pozo del Tigre",
    "tipo": "Ciudad",
    "departamento": "Patiño",
    "provincia": "Formosa",
    "pais": "Argentina",
    "elevacion": 79,
    "lat": -24.9047,
    "lon": -60.1203
  },
  {
    "id": "PUERTO-P",
    "nombre": "Puerto Pilcomayo",
    "tipo": "Ciudad",
    "departamento": "Pilcomayo",
    "provincia": "Formosa",
    "pais": "Argentina",
    "elevacion": 61,
    "lat": -25.3361,
    "lon": -57.6675
  },
  {
    "id": "MOJON",
    "nombre": "Misión Laishí",
    "tipo": "Ciudad",
    "departamento": "Formosa",
    "provincia": "Formosa",
    "pais": "Argentina",
    "elevacion": 50,
    "lat": -26.335,
    "lon": -58.3497
  },
  {
    "id": "GRANDE-R",
    "nombre": "Gran Guardia",
    "tipo": "Ciudad",
    "departamento": "Pilcomayo",
    "provincia": "Formosa",
    "pais": "Argentina",
    "elevacion": 57,
    "lat": -25.9836,
    "lon": -58.3033
  },
  {
    "id": "SAN-MART",
    "nombre": "San Martín II",
    "tipo": "Ciudad",
    "departamento": "Formosa",
    "provincia": "Formosa",
    "pais": "Argentina",
    "elevacion": 49,
    "lat": -26.4589,
    "lon": -58.2731
  },
  {
    "id": "ESTANCIAS",
    "nombre": "Estanislao del Campo",
    "tipo": "Ciudad",
    "departamento": "Patiño",
    "provincia": "Formosa",
    "pais": "Argentina",
    "elevacion": 75,
    "lat": -25.0561,
    "lon": -60.3747
  },
  {
    "id": "EL-CHORR",
    "nombre": "El Chorro",
    "tipo": "Ciudad",
    "departamento": "Ramal General Belgrano",
    "provincia": "Formosa",
    "pais": "Argentina",
    "elevacion": 85,
    "lat": -23.7978,
    "lon": -62.3533
  },
  {
    "id": "INII",
    "nombre": "Ingeniero Juárez",
    "tipo": "Ciudad",
    "departamento": "Matacos",
    "provincia": "Formosa",
    "pais": "Argentina",
    "elevacion": 78,
    "lat": -23.8997,
    "lon": -61.8433
  },
  {
    "id": "BARTOL",
    "nombre": "Bartolomé de las Casas",
    "tipo": "Ciudad",
    "departamento": "Riacho He-He",
    "provincia": "Formosa",
    "pais": "Argentina",
    "elevacion": 58,
    "lat": -24.9833,
    "lon": -58.6333
  },
  {
    "id": "ALMAFUERTE",
    "nombre": "Almafuerte",
    "tipo": "Ciudad",
    "departamento": "Formosa",
    "provincia": "Formosa",
    "pais": "Argentina",
    "elevacion": 55,
    "lat": -26.5336,
    "lon": -58.1744
  },
  {
    "id": "RES",
    "nombre": "Resistencia",
    "tipo": "Ciudad",
    "departamento": "San Fernando",
    "provincia": "Chaco",
    "pais": "Argentina",
    "elevacion": 50,
    "lat": -27.4514,
    "lon": -58.9867
  },
  {
    "id": "PRES-ROQ",
    "nombre": "Presidencia Roque Sáenz Peña",
    "tipo": "Ciudad",
    "departamento": "Comandante Fernández",
    "provincia": "Chaco",
    "pais": "Argentina",
    "elevacion": 92,
    "lat": -26.7852,
    "lon": -60.4388
  },
  {
    "id": "VILE",
    "nombre": "Villa Ángela",
    "tipo": "Ciudad",
    "departamento": "Mayor Luis Jorge Fontana",
    "provincia": "Chaco",
    "pais": "Argentina",
    "elevacion": 80,
    "lat": -27.573,
    "lon": -60.7167
  },
  {
    "id": "BARRAN",
    "nombre": "Barranqueras",
    "tipo": "Ciudad",
    "departamento": "San Fernando",
    "provincia": "Chaco",
    "pais": "Argentina",
    "elevacion": 52,
    "lat": -27.4853,
    "lon": -58.9397
  },
  {
    "id": "SAN-MART",
    "nombre": "General José de San Martín",
    "tipo": "Ciudad",
    "departamento": "General José de San Martín",
    "provincia": "Chaco",
    "pais": "Argentina",
    "elevacion": 71,
    "lat": -26.5375,
    "lon": -59.3419
  },
  {
    "id": "CHARATA",
    "nombre": "Charata",
    "tipo": "Ciudad",
    "departamento": "Chacabuco",
    "provincia": "Chaco",
    "pais": "Argentina",
    "elevacion": 96,
    "lat": -27.2144,
    "lon": -61.1872
  },
  {
    "id": "CASTELLI",
    "nombre": "Juan José Castelli",
    "tipo": "Ciudad",
    "departamento": "General Güemes",
    "provincia": "Chaco",
    "pais": "Argentina",
    "elevacion": 91,
    "lat": -25.9467,
    "lon": -60.6192
  },
  {
    "id": "LAS-BRE",
    "nombre": "Las Breñas",
    "tipo": "Ciudad",
    "departamento": "Nueve de Julio",
    "provincia": "Chaco",
    "pais": "Argentina",
    "elevacion": 99,
    "lat": -27.0894,
    "lon": -61.0836
  },
  {
    "id": "MAKALLE",
    "nombre": "Makallé",
    "tipo": "Ciudad",
    "departamento": "General Donovan",
    "provincia": "Chaco",
    "pais": "Argentina",
    "elevacion": 64,
    "lat": -27.2036,
    "lon": -59.2864
  },
  {
    "id": "PUERTO-V",
    "nombre": "Puerto Vilelas",
    "tipo": "Ciudad",
    "departamento": "San Fernando",
    "provincia": "Chaco",
    "pais": "Argentina",
    "elevacion": 54,
    "lat": -27.5033,
    "lon": -58.8861
  },
  {
    "id": "CORZUELA",
    "nombre": "Corzuela",
    "tipo": "Ciudad",
    "departamento": "General Belgrano",
    "provincia": "Chaco",
    "pais": "Argentina",
    "elevacion": 89,
    "lat": -26.9467,
    "lon": -60.9694
  },
  {
    "id": "NAPENAY",
    "nombre": "Napenay",
    "tipo": "Ciudad",
    "departamento": "Comandante Fernández",
    "provincia": "Chaco",
    "pais": "Argentina",
    "elevacion": 96,
    "lat": -26.8353,
    "lon": -60.5125
  },
  {
    "id": "AVIA-T",
    "nombre": "Avia Terai",
    "tipo": "Ciudad",
    "departamento": "Independencia",
    "provincia": "Chaco",
    "pais": "Argentina",
    "elevacion": 92,
    "lat": -26.6769,
    "lon": -60.7244
  },
  {
    "id": "MACHAGAI",
    "nombre": "Machagai",
    "tipo": "Ciudad",
    "departamento": "25 de Mayo",
    "provincia": "Chaco",
    "pais": "Argentina",
    "elevacion": 87,
    "lat": -26.9228,
    "lon": -60.0453
  },
  {
    "id": "PAMPA-D",
    "nombre": "Pampa del Infierno",
    "tipo": "Ciudad",
    "departamento": "Almirante Brown",
    "provincia": "Chaco",
    "pais": "Argentina",
    "elevacion": 99,
    "lat": -26.5028,
    "lon": -61.1703
  },
  {
    "id": "SÁENZ-PEÑA",
    "nombre": "Presidencia Roca",
    "tipo": "Ciudad",
    "departamento": "Comandante Fernández",
    "provincia": "Chaco",
    "pais": "Argentina",
    "elevacion": 95,
    "lat": -26.7833,
    "lon": -60.45
  },
  {
    "id": "TACO-POZO",
    "nombre": "Taco Pozo",
    "tipo": "Ciudad",
    "departamento": "Almirante Brown",
    "provincia": "Chaco",
    "pais": "Argentina",
    "elevacion": 157,
    "lat": -25.6186,
    "lon": -63.2603
  },
  {
    "id": "COLONIAS",
    "nombre": "Colonia Elisa",
    "tipo": "Ciudad",
    "departamento": "Sargento Cabral",
    "provincia": "Chaco",
    "pais": "Argentina",
    "elevacion": 88,
    "lat": -26.9242,
    "lon": -59.5156
  },
  {
    "id": "COLONIA-B",
    "nombre": "Colonia Benítez",
    "tipo": "Ciudad",
    "departamento": "San Fernando",
    "provincia": "Chaco",
    "pais": "Argentina",
    "elevacion": 58,
    "lat": -27.3306,
    "lon": -58.9469
  },
  {
    "id": "ISLA-DE-S",
    "nombre": "Isla del Cerrito",
    "tipo": "Ciudad",
    "departamento": "San Fernando",
    "provincia": "Chaco",
    "pais": "Argentina",
    "elevacion": 59,
    "lat": -27.2772,
    "lon": -58.6561
  },
  {
    "id": "LA-ESCOND",
    "nombre": "La Escondida",
    "tipo": "Ciudad",
    "departamento": "General Donovan",
    "provincia": "Chaco",
    "pais": "Argentina",
    "elevacion": 66,
    "lat": -27.1656,
    "lon": -59.3528
  },
  {
    "id": "TRES-ISLETAS",
    "nombre": "Tres Isletas",
    "tipo": "Ciudad",
    "departamento": "Maipú",
    "provincia": "Chaco",
    "pais": "Argentina",
    "elevacion": 98,
    "lat": -26.3439,
    "lon": -60.4133
  },
  {
    "id": "FONTANA",
    "nombre": "Fontana",
    "tipo": "Ciudad",
    "departamento": "San Fernando",
    "provincia": "Chaco",
    "pais": "Argentina",
    "elevacion": 62,
    "lat": -27.4325,
    "lon": -59.0222
  },
  {
    "id": "VILLA-BERTH",
    "nombre": "Villa Berthet",
    "tipo": "Ciudad",
    "departamento": "O'Higgins",
    "provincia": "Chaco",
    "pais": "Argentina",
    "elevacion": 85,
    "lat": -27.3647,
    "lon": -60.4147
  },
  {
    "id": "COLONIA-BARANDA",
    "nombre": "Colonia Baranda",
    "tipo": "Ciudad",
    "departamento": "San Fernando",
    "provincia": "Chaco",
    "pais": "Argentina",
    "elevacion": 58,
    "lat": -27.51,
    "lon": -59.18
  },
  {
    "id": "COR-CAP",
    "nombre": "Corrientes",
    "tipo": "Ciudad",
    "departamento": "Capital",
    "provincia": "Corrientes",
    "pais": "Argentina",
    "elevacion": 62,
    "lat": -27.4806,
    "lon": -58.8341
  },
  {
    "id": "GOYA",
    "nombre": "Goya",
    "tipo": "Ciudad",
    "departamento": "Goya",
    "provincia": "Corrientes",
    "pais": "Argentina",
    "elevacion": 19,
    "lat": -29.14,
    "lon": -59.26
  },
  {
    "id": "BEL",
    "nombre": "Bella Vista",
    "tipo": "Ciudad",
    "departamento": "Bella Vista",
    "provincia": "Corrientes",
    "pais": "Argentina",
    "elevacion": 34,
    "lat": -28.5094,
    "lon": -59.0563
  },
  {
    "id": "PAS",
    "nombre": "Paso de los Libres",
    "tipo": "Ciudad",
    "departamento": "Paso de los Libres",
    "provincia": "Corrientes",
    "pais": "Argentina",
    "elevacion": 55,
    "lat": -29.7131,
    "lon": -57.085
  },
  {
    "id": "SAN-M",
    "nombre": "San Miguel",
    "tipo": "Ciudad",
    "departamento": "San Miguel",
    "provincia": "Corrientes",
    "pais": "Argentina",
    "elevacion": 52,
    "lat": -27.9875,
    "lon": -57.5875
  },
  {
    "id": "ITA",
    "nombre": "Itatí",
    "tipo": "Ciudad",
    "departamento": "Itatí",
    "provincia": "Corrientes",
    "pais": "Argentina",
    "elevacion": 62,
    "lat": -27.27,
    "lon": -58.245
  },
  {
    "id": "SAN-L",
    "nombre": "San Luis del Palmar",
    "tipo": "Ciudad",
    "departamento": "San Luis del Palmar",
    "provincia": "Corrientes",
    "pais": "Argentina",
    "elevacion": 64,
    "lat": -27.5075,
    "lon": -58.5553
  },
  {
    "id": "SANTO",
    "nombre": "Santo Tomé",
    "tipo": "Ciudad",
    "departamento": "Santo Tomé",
    "provincia": "Corrientes",
    "pais": "Argentina",
    "elevacion": 69,
    "lat": -28.55,
    "lon": -56.05
  },
  {
    "id": "ESQ",
    "nombre": "Esquina",
    "tipo": "Ciudad",
    "departamento": "Esquina",
    "provincia": "Corrientes",
    "pais": "Argentina",
    "elevacion": 31,
    "lat": -30.0194,
    "lon": -59.5239
  },
  {
    "id": "EMP",
    "nombre": "Empedrado",
    "tipo": "Ciudad",
    "departamento": "Empedrado",
    "provincia": "Corrientes",
    "pais": "Argentina",
    "elevacion": 72,
    "lat": -27.9528,
    "lon": -58.8128
  },
  {
    "id": "CUR",
    "nombre": "Curuzú Cuatiá",
    "tipo": "Ciudad",
    "departamento": "Curuzú Cuatiá",
    "provincia": "Corrientes",
    "pais": "Argentina",
    "elevacion": 78,
    "lat": -29.7914,
    "lon": -58.0569
  },
  {
    "id": "MERC",
    "nombre": "Mercedes",
    "tipo": "Ciudad",
    "departamento": "Mercedes",
    "provincia": "Corrientes",
    "pais": "Argentina",
    "elevacion": 96,
    "lat": -29.18,
    "lon": -58.08
  },
  {
    "id": "MONTE",
    "nombre": "Monte Caseros",
    "tipo": "Ciudad",
    "departamento": "Monte Caseros",
    "provincia": "Corrientes",
    "pais": "Argentina",
    "elevacion": 41,
    "lat": -30.2539,
    "lon": -57.6378
  },
  {
    "id": "VIRA",
    "nombre": "Virasoro",
    "tipo": "Ciudad",
    "departamento": "Santo Tomé",
    "provincia": "Corrientes",
    "pais": "Argentina",
    "elevacion": 129,
    "lat": -28.0494,
    "lon": -56.0425
  },
  {
    "id": "SALADAS",
    "nombre": "Saladas",
    "tipo": "Ciudad",
    "departamento": "Saladas",
    "provincia": "Corrientes",
    "pais": "Argentina",
    "elevacion": 77,
    "lat": -28.255,
    "lon": -58.6258
  },
  {
    "id": "SAN-C",
    "nombre": "San Cosme",
    "tipo": "Ciudad",
    "departamento": "San Cosme",
    "provincia": "Corrientes",
    "pais": "Argentina",
    "elevacion": 60,
    "lat": -27.3669,
    "lon": -58.5367
  },
  {
    "id": "ITUZA",
    "nombre": "Ituzaingó",
    "tipo": "Ciudad",
    "departamento": "Ituzaingó",
    "provincia": "Corrientes",
    "pais": "Argentina",
    "elevacion": 67,
    "lat": -27.5861,
    "lon": -56.6942
  },
  {
    "id": "SAN-CAR",
    "nombre": "San Carlos",
    "tipo": "Ciudad",
    "departamento": "Ituzaingó",
    "provincia": "Corrientes",
    "pais": "Argentina",
    "elevacion": 100,
    "lat": -28.2925,
    "lon": -57.6867
  },
  {
    "id": "SAUCE",
    "nombre": "Sauce",
    "tipo": "Ciudad",
    "departamento": "Sauce",
    "provincia": "Corrientes",
    "pais": "Argentina",
    "elevacion": 65,
    "lat": -30.085,
    "lon": -58.785
  },
  {
    "id": "LIBERTAD",
    "nombre": "Libertad",
    "tipo": "Ciudad",
    "departamento": "San Martín",
    "provincia": "Corrientes",
    "pais": "Argentina",
    "elevacion": 88,
    "lat": -29.6169,
    "lon": -58.715
  },
  {
    "id": "MBURU",
    "nombre": "Mburucuyá",
    "tipo": "Ciudad",
    "departamento": "Mburucuyá",
    "provincia": "Corrientes",
    "pais": "Argentina",
    "elevacion": 74,
    "lat": -28.0492,
    "lon": -58.2281
  },
  {
    "id": "CAÃ",
    "nombre": "Caá Catí",
    "tipo": "Ciudad",
    "departamento": "General Paz",
    "provincia": "Corrientes",
    "pais": "Argentina",
    "elevacion": 57,
    "lat": -27.75,
    "lon": -57.7
  },
  {
    "id": "PIRAYUÍ",
    "nombre": "Pirayúí",
    "tipo": "Ciudad",
    "departamento": "Capital",
    "provincia": "Corrientes",
    "pais": "Argentina",
    "elevacion": 60,
    "lat": -27.4428,
    "lon": -58.7642
  },
  {
    "id": "ALVEAR",
    "nombre": "Alvear",
    "tipo": "Ciudad",
    "departamento": "Alvear",
    "provincia": "Corrientes",
    "pais": "Argentina",
    "elevacion": 43,
    "lat": -29.1033,
    "lon": -56.5508
  },
  {
    "id": "CONCEPCION",
    "nombre": "Concepción",
    "tipo": "Ciudad",
    "departamento": "Concepción",
    "provincia": "Corrientes",
    "pais": "Argentina",
    "elevacion": 74,
    "lat": -28.3767,
    "lon": -58.2628
  },
  {
    "id": "SMT",
    "nombre": "San Miguel de Tucumán",
    "tipo": "Ciudad",
    "departamento": "Capital",
    "provincia": "Tucumán",
    "pais": "Argentina",
    "elevacion": 431,
    "lat": -26.8241,
    "lon": -65.2226
  },
  {
    "id": "TAF",
    "nombre": "Tafí del Valle",
    "tipo": "Ciudad",
    "departamento": "Tafí del Valle",
    "provincia": "Tucumán",
    "pais": "Argentina",
    "elevacion": 2014,
    "lat": -26.8524,
    "lon": -65.7063
  },
  {
    "id": "CON",
    "nombre": "Concepción",
    "tipo": "Ciudad",
    "departamento": "Chicligasta",
    "provincia": "Tucumán",
    "pais": "Argentina",
    "elevacion": 367,
    "lat": -27.3434,
    "lon": -65.5929
  },
  {
    "id": "TAV",
    "nombre": "Tafí Viejo",
    "tipo": "Ciudad",
    "departamento": "Tafí Viejo",
    "provincia": "Tucumán",
    "pais": "Argentina",
    "elevacion": 594,
    "lat": -26.7321,
    "lon": -65.2589
  },
  {
    "id": "AGU",
    "nombre": "Aguilares",
    "tipo": "Ciudad",
    "departamento": "Río Chico",
    "provincia": "Tucumán",
    "pais": "Argentina",
    "elevacion": 385,
    "lat": -27.4341,
    "lon": -65.6142
  },
  {
    "id": "MON",
    "nombre": "Monteros",
    "tipo": "Ciudad",
    "departamento": "Monteros",
    "provincia": "Tucumán",
    "pais": "Argentina",
    "elevacion": 325,
    "lat": -27.1667,
    "lon": -65.5
  },
  {
    "id": "BAN",
    "nombre": "Banda del Río Salí",
    "tipo": "Ciudad",
    "departamento": "Cruz Alta",
    "provincia": "Tucumán",
    "pais": "Argentina",
    "elevacion": 436,
    "lat": -26.8367,
    "lon": -65.1656
  },
  {
    "id": "FAM",
    "nombre": "Famaillá",
    "tipo": "Ciudad",
    "departamento": "Famaillá",
    "provincia": "Tucumán",
    "pais": "Argentina",
    "elevacion": 361,
    "lat": -27.0537,
    "lon": -65.4042
  },
  {
    "id": "LAC",
    "nombre": "Lules",
    "tipo": "Ciudad",
    "departamento": "Lules",
    "provincia": "Tucumán",
    "pais": "Argentina",
    "elevacion": 382,
    "lat": -26.9333,
    "lon": -65.3667
  },
  {
    "id": "BEL",
    "nombre": "Bella Vista",
    "tipo": "Ciudad",
    "departamento": "Leales",
    "provincia": "Tucumán",
    "pais": "Argentina",
    "elevacion": 332,
    "lat": -27.0333,
    "lon": -65.3
  },
  {
    "id": "ALB",
    "nombre": "Alberdi",
    "tipo": "Ciudad",
    "departamento": "Alberdi",
    "provincia": "Tucumán",
    "pais": "Argentina",
    "elevacion": 396,
    "lat": -27.5833,
    "lon": -65.6167
  },
  {
    "id": "SIM",
    "nombre": "Simoca",
    "tipo": "Ciudad",
    "departamento": "Simoca",
    "provincia": "Tucumán",
    "pais": "Argentina",
    "elevacion": 320,
    "lat": -27.2633,
    "lon": -65.3567
  },
  {
    "id": "TRA",
    "nombre": "Trancas",
    "tipo": "Ciudad",
    "departamento": "Trancas",
    "provincia": "Tucumán",
    "pais": "Argentina",
    "elevacion": 786,
    "lat": -26.2333,
    "lon": -65.2833
  },
  {
    "id": "GRA",
    "nombre": "Graneros",
    "tipo": "Ciudad",
    "departamento": "Graneros",
    "provincia": "Tucumán",
    "pais": "Argentina",
    "elevacion": 325,
    "lat": -27.65,
    "lon": -65.4333
  },
  {
    "id": "YER",
    "nombre": "Yerba Buena",
    "tipo": "Ciudad",
    "departamento": "Yerba Buena",
    "provincia": "Tucumán",
    "pais": "Argentina",
    "elevacion": 463,
    "lat": -26.8167,
    "lon": -65.3167
  },
  {
    "id": "BUR",
    "nombre": "Burruyacú",
    "tipo": "Ciudad",
    "departamento": "Burruyacú",
    "provincia": "Tucumán",
    "pais": "Argentina",
    "elevacion": 425,
    "lat": -26.4917,
    "lon": -64.7417
  },
  {
    "id": "AMF",
    "nombre": "Amaicha del Valle",
    "tipo": "Pueblo",
    "departamento": "Tafí del Valle",
    "provincia": "Tucumán",
    "pais": "Argentina",
    "elevacion": 1986,
    "lat": -26.5933,
    "lon": -65.9183
  },
  {
    "id": "COL",
    "nombre": "Colalao del Valle",
    "tipo": "Pueblo",
    "departamento": "Tafí del Valle",
    "provincia": "Tucumán",
    "pais": "Argentina",
    "elevacion": 1875,
    "lat": -26.3667,
    "lon": -65.9333
  },
  {
    "id": "REN",
    "nombre": "Raco",
    "tipo": "Pueblo",
    "departamento": "Tafí Viejo",
    "provincia": "Tucumán",
    "pais": "Argentina",
    "elevacion": 957,
    "lat": -26.6333,
    "lon": -65.4333
  },
  {
    "id": "SAN",
    "nombre": "San Pedro de Colalao",
    "tipo": "Ciudad",
    "departamento": "Trancas",
    "provincia": "Tucumán",
    "pais": "Argentina",
    "elevacion": 1088,
    "lat": -26.2333,
    "lon": -65.4833
  },
  {
    "id": "ELM",
    "nombre": "El Mollar",
    "tipo": "Pueblo",
    "departamento": "Tafí del Valle",
    "provincia": "Tucumán",
    "pais": "Argentina",
    "elevacion": 2020,
    "lat": -26.9417,
    "lon": -65.7083
  },
  {
    "id": "LEA",
    "nombre": "Leales",
    "tipo": "Ciudad",
    "departamento": "Leales",
    "provincia": "Tucumán",
    "pais": "Argentina",
    "elevacion": 327,
    "lat": -27.2,
    "lon": -65.0833
  },
  {
    "id": "CHO",
    "nombre": "Choromoro",
    "tipo": "Pueblo",
    "departamento": "Trancas",
    "provincia": "Tucumán",
    "pais": "Argentina",
    "elevacion": 868,
    "lat": -26.4083,
    "lon": -65.325
  },
  {
    "id": "LAC",
    "nombre": "La Cocha",
    "tipo": "Ciudad",
    "departamento": "La Cocha",
    "provincia": "Tucumán",
    "pais": "Argentina",
    "elevacion": 436,
    "lat": -27.7833,
    "lon": -65.5667
  },
  {
    "id": "PAR",
    "nombre": "Paraná",
    "tipo": "Ciudad",
    "departamento": "Paraná",
    "provincia": "Entre Ríos",
    "pais": "Argentina",
    "elevacion": 77,
    "lat": -31.7333,
    "lon": -60.5333
  },
  {
    "id": "CON",
    "nombre": "Concordia",
    "tipo": "Ciudad",
    "departamento": "Concordia",
    "provincia": "Entre Ríos",
    "pais": "Argentina",
    "elevacion": 21,
    "lat": -31.3933,
    "lon": -58.0217
  },
  {
    "id": "GUA",
    "nombre": "Gualeguaychú",
    "tipo": "Ciudad",
    "departamento": "Gualeguaychú",
    "provincia": "Entre Ríos",
    "pais": "Argentina",
    "elevacion": 8,
    "lat": -33.0103,
    "lon": -58.5217
  },
  {
    "id": "URU",
    "nombre": "Concepción del Uruguay",
    "tipo": "Ciudad",
    "departamento": "Uruguay",
    "provincia": "Entre Ríos",
    "pais": "Argentina",
    "elevacion": 20,
    "lat": -32.4833,
    "lon": -58.2333
  },
  {
    "id": "VIL",
    "nombre": "Villaguay",
    "tipo": "Ciudad",
    "departamento": "Villaguay",
    "provincia": "Entre Ríos",
    "pais": "Argentina",
    "elevacion": 43,
    "lat": -31.8667,
    "lon": -59.0167
  },
  {
    "id": "COL",
    "nombre": "Colón",
    "tipo": "Ciudad",
    "departamento": "Colón",
    "provincia": "Entre Ríos",
    "pais": "Argentina",
    "elevacion": 22,
    "lat": -32.2233,
    "lon": -58.1417
  },
  {
    "id": "DIA",
    "nombre": "Diamante",
    "tipo": "Ciudad",
    "departamento": "Diamante",
    "provincia": "Entre Ríos",
    "pais": "Argentina",
    "elevacion": 35,
    "lat": -32.0667,
    "lon": -60.6333
  },
  {
    "id": "GUA",
    "nombre": "Gualeguay",
    "tipo": "Ciudad",
    "departamento": "Gualeguay",
    "provincia": "Entre Ríos",
    "pais": "Argentina",
    "elevacion": 12,
    "lat": -33.1433,
    "lon": -59.31
  },
  {
    "id": "VIC",
    "nombre": "Victoria",
    "tipo": "Ciudad",
    "departamento": "Victoria",
    "provincia": "Entre Ríos",
    "pais": "Argentina",
    "elevacion": 25,
    "lat": -32.6167,
    "lon": -60.1667
  },
  {
    "id": "LPA",
    "nombre": "La Paz",
    "tipo": "Ciudad",
    "departamento": "La Paz",
    "provincia": "Entre Ríos",
    "pais": "Argentina",
    "elevacion": 38,
    "lat": -30.75,
    "lon": -59.6333
  },
  {
    "id": "FED",
    "nombre": "Federal",
    "tipo": "Ciudad",
    "departamento": "Federal",
    "provincia": "Entre Ríos",
    "pais": "Argentina",
    "elevacion": 70,
    "lat": -30.95,
    "lon": -58.7833
  },
  {
    "id": "CHA",
    "nombre": "Chajarí",
    "tipo": "Ciudad",
    "departamento": "Federación",
    "provincia": "Entre Ríos",
    "pais": "Argentina",
    "elevacion": 48,
    "lat": -30.75,
    "lon": -58.0167
  },
  {
    "id": "NOG",
    "nombre": "Nogoyá",
    "tipo": "Ciudad",
    "departamento": "Nogoyá",
    "provincia": "Entre Ríos",
    "pais": "Argentina",
    "elevacion": 45,
    "lat": -32.3933,
    "lon": -59.79
  },
  {
    "id": "SJO",
    "nombre": "San José",
    "tipo": "Ciudad",
    "departamento": "Colón",
    "provincia": "Entre Ríos",
    "pais": "Argentina",
    "elevacion": 25,
    "lat": -32.1933,
    "lon": -58.1683
  },
  {
    "id": "UBE",
    "nombre": "Ubajay",
    "tipo": "Pueblo",
    "departamento": "Colón",
    "provincia": "Entre Ríos",
    "pais": "Argentina",
    "elevacion": 35,
    "lat": -31.7933,
    "lon": -58.3017
  },
  {
    "id": "FED",
    "nombre": "Federación",
    "tipo": "Ciudad",
    "departamento": "Federación",
    "provincia": "Entre Ríos",
    "pais": "Argentina",
    "elevacion": 37,
    "lat": -31.0,
    "lon": -57.9
  },
  {
    "id": "SAN",
    "nombre": "San Salvador",
    "tipo": "Ciudad",
    "departamento": "San Salvador",
    "provincia": "Entre Ríos",
    "pais": "Argentina",
    "elevacion": 42,
    "lat": -31.6233,
    "lon": -58.505
  },
  {
    "id": "VEL",
    "nombre": "Villa Elisa",
    "tipo": "Ciudad",
    "departamento": "Colón",
    "provincia": "Entre Ríos",
    "pais": "Argentina",
    "elevacion": 45,
    "lat": -32.1633,
    "lon": -58.4017
  },